transcript,formatted.address,lat.coord,lon.coord,place,sign,place_name,district,nafa,natural_area_class,municipla_class,metropolitan_class,religion,total_population,jews and others,jews,arabs,est_year,settlement_method,organizational_association,coordinates,hight,planning_commetee,police,transcript_pub,שדה לקישור
ABBIRIM,"Abirim, Israel",33.038086,35.286044,אבירים,1220,אבירים,2,24,244,52,NA,1,214,0.2,0.2,NA,1980,370,19,2271577148,561,255,1320,Abbirim,http://gis.cbs.gov.il/Yeshuvim_allyears/start.aspx?stl=1220
ABU TULUL,"Abu Tulul, Israel",31.142612,34.913514,אבו תלול,1375,אבו תלול,6,62,623,68,NA,2,391,NA,NA,0.4,NA,450,NA,1934356585,388,624,3481,Abu Tulul,http://gis.cbs.gov.il/Yeshuvim_allyears/start.aspx?stl=1375
ADAMIT,"Adamit, Israel",33.078842,35.20951,אדמית,1068,אדמית,2,24,244,4,NA,1,181,0.2,0.2,NA,1958,330,15,2199777600,449,201,1350,Adamit,http://gis.cbs.gov.il/Yeshuvim_allyears/start.aspx?stl=1068
ADANIM,"Adanim, Israel",32.138798,34.909148,עדנים,2035,עדנים,4,42,421,20,142,1,480,0.5,0.5,NA,1950,310,1,1912267188,24,417,5140,Adanim,http://gis.cbs.gov.il/Yeshuvim_allyears/start.aspx?stl=2035
ADDERET,"Aderet, Israel",31.659715,34.99444,אדרת,1123,אדרת,1,11,112,26,444,1,914,0.9,0.9,NA,1961,310,1,1995861869,433,151,7004,Adderet,http://gis.cbs.gov.il/Yeshuvim_allyears/start.aspx?stl=1123
ADDIRIM,"Adirim, Israel",32.54894100000001,35.271637,אדירים,113,אדירים,2,23,234,8,NA,1,271,0.3,0.3,NA,1956,310,1,2257971719,71,204,1420,Addirim,http://gis.cbs.gov.il/Yeshuvim_allyears/start.aspx?stl=113
ADORA,"Adora, Har Hebron",31.552219,35.017634,אדורה,3759,אדורה,7,77,NA,78,NA,1,421,0.4,0.4,NA,1984,370,9,2017560676,652,715,4352,Adora,http://gis.cbs.gov.il/Yeshuvim_allyears/start.aspx?stl=3759
AFEQ,"Afek, Israel",32.838316,35.12778,אפק,313,אפק,2,24,246,4,241,1,597,0.6,0.6,NA,1939,330,15,2122874937,24,201,1160,Afeq,http://gis.cbs.gov.il/Yeshuvim_allyears/start.aspx?stl=313
AFIQ,Afik,32.779428,35.702994,אפיק,4301,אפיק,2,29,294,71,NA,1,292,0.3,0.3,NA,1967,330,15,2660674275,339,219,1270,Afiq,http://gis.cbs.gov.il/Yeshuvim_allyears/start.aspx?stl=4301
AGUR,"Agur, Israel",31.697475,34.912024,עגור,794,עגור,1,11,112,26,NA,1,527,0.5,0.5,NA,1950,310,1,1917562283,218,151,7004,Agur,http://gis.cbs.gov.il/Yeshuvim_allyears/start.aspx?stl=794
AHAWA,"Ahava St, Hod Hasharon, Israel",32.16155,34.900012,אחווה,1157,אחווה,6,61,611,33,143,1,332,0.3,0.3,NA,1976,350,NA,1782062796,61,616,3830,Ahawa,http://gis.cbs.gov.il/Yeshuvim_allyears/start.aspx?stl=1157
AHIHUD,"Ahihud, Israel",32.907405,35.171715,אחיהוד,785,אחיהוד,2,24,246,4,241,1,850,0.9,0.8,NA,1950,310,1,2165375698,49,201,1330,Ahihud,http://gis.cbs.gov.il/Yeshuvim_allyears/start.aspx?stl=785
AHUZZAM,"Ahuzam, Israel",31.552682,34.770151,אחוזם,821,אחוזם,6,61,612,50,NA,1,543,0.5,0.5,NA,1950,310,2,1782260687,169,634,3820,Ahuzzam,http://gis.cbs.gov.il/Yeshuvim_allyears/start.aspx?stl=821
AL-ARYAN,"Al-Arian, Israel",32.498076,35.125094,אל -עריאן,1316,אל -עריאן,3,32,323,14,NA,2,184,NA,NA,0.2,NA,450,NA,2120271154,367,351,1450,Al-Aryan,http://gis.cbs.gov.il/Yeshuvim_allyears/start.aspx?stl=1316
AL-AZY,"Al-'Azi, Israel",31.71886799999999,34.814254,אל -עזי,1339,אל -עזי,6,61,611,35,NA,2,188,NA,NA,0.2,NA,450,NA,1809262552,93,632,3830,Al-Azy,http://gis.cbs.gov.il/Yeshuvim_allyears/start.aspx?stl=1339
ALLONE ABBA,"Alonei Abba, Israel",32.730945,35.172028,אלוני אבא,429,אלוני אבא,2,23,237,9,242,1,983,1,1,NA,1948,320,6,2163073721,152,254,1440,Allone Abba,http://gis.cbs.gov.il/Yeshuvim_allyears/start.aspx?stl=429
ALLONE HABASHAN,Alonei Habashan,33.044087,35.838507,אלוני הבשן,4017,אלוני הבשן,2,29,292,71,NA,1,422,0.4,0.4,NA,1981,320,2,2786977222,958,219,1270,Allone HaBashan,http://gis.cbs.gov.il/Yeshuvim_allyears/start.aspx?stl=4017
ALLONE YIZHAQ,"Alonei Yitzhak, Israel",32.509997,35.00519999999999,אלוני יצחק,868,אלוני יצחק,3,32,324,14,NA,1,276,0.3,0.2,NA,1949,340,NA,2006271295,71,351,1181,Allone Yizhaq,http://gis.cbs.gov.il/Yeshuvim_allyears/start.aspx?stl=868
ALLONIM,"Alonim, Israel",32.721459,35.143399,אלונים,285,אלונים,2,23,235,9,242,1,481,0.5,0.5,NA,1938,330,15,2139173611,105,254,1440,Allonim,http://gis.cbs.gov.il/Yeshuvim_allyears/start.aspx?stl=285
ALMA,"Alma, Israel",33.05186,35.499636,עלמה,688,עלמה,2,21,212,2,NA,1,686,0.7,0.7,NA,1949,310,2,2470477293,677,209,1230,Alma,http://gis.cbs.gov.il/Yeshuvim_allyears/start.aspx?stl=688
ALMAGOR,"Almagor, Israel",32.912709,35.60231,אלמגור,1125,אלמגור,2,22,221,6,NA,1,374,0.4,0.4,NA,1961,310,1,2566875753,-18,214,1220,Almagor,http://gis.cbs.gov.il/Yeshuvim_allyears/start.aspx?stl=1125
ALMOG,Almog,31.790034,35.461968,אלמוג,3556,אלמוג,7,75,NA,74,NA,1,239,0.2,0.2,NA,1977,330,15,2437563305,-278,713,4355,Almog,http://gis.cbs.gov.il/Yeshuvim_allyears/start.aspx?stl=3556
ALUMIM,"Alumim, Israel",31.453049,34.514711,עלומים,1146,עלומים,6,62,622,39,NA,1,484,0.5,0.5,NA,1966,330,3,1537659579,98,651,3482,Alumim,http://gis.cbs.gov.il/Yeshuvim_allyears/start.aspx?stl=1146
ALUMMA,"Aluma, Israel",31.65204099999999,34.742872,אלומה,1145,אלומה,6,61,611,34,NA,1,493,0.5,0.5,NA,1965,350,NA,1757661777,84,631,3820,Alumma,http://gis.cbs.gov.il/Yeshuvim_allyears/start.aspx?stl=1145
ALUMMOT,"Alumot, Israel",32.706628,35.546088,אלומות,330,אלומות,2,22,221,6,NA,1,354,0.4,0.4,NA,1941,330,15,2515173475,30,214,1240,Alummot,http://gis.cbs.gov.il/Yeshuvim_allyears/start.aspx?stl=330
AMAZYA,"Amatzia, Israel",31.531176,34.914463,אמציה,23,אמציה,6,61,612,50,NA,1,567,0.6,0.6,NA,1955,320,9,1918460452,358,634,3820,Amazya,http://gis.cbs.gov.il/Yeshuvim_allyears/start.aspx?stl=23
AMIR,"Amir, Israel",33.17772610000001,35.6198305,עמיר,319,עמיר,2,21,211,1,NA,1,557,0.6,0.5,NA,1939,330,15,2582478703,76,253,1210,Amir,http://gis.cbs.gov.il/Yeshuvim_allyears/start.aspx?stl=319
AMIRIM,"Amirim, Israel",32.937351,35.45036500000001,אמירים,1064,אמירים,2,21,212,2,NA,1,795,0.8,0.8,NA,1950,310,1,2425676027,546,209,1230,Amirim,http://gis.cbs.gov.il/Yeshuvim_allyears/start.aspx?stl=1064
AMMI'AD,"Ami'ad, Israel",32.930354,35.54052100000001,עמיעד,385,עמיעד,2,21,213,1,NA,1,423,0.4,0.4,NA,1946,330,15,2509275925,241,253,1220,Ammi'ad,http://gis.cbs.gov.il/Yeshuvim_allyears/start.aspx?stl=385
AMMI'OZ,"Ami'oz, Israel",31.248463,34.413404,עמיעוז,318,עמיעוז,6,62,622,38,NA,1,211,0.2,0.2,NA,1957,310,1,1440657325,127,651,3430,Ammi'oz,http://gis.cbs.gov.il/Yeshuvim_allyears/start.aspx?stl=318
AMMIQAM,"Amikam, Israel",32.564626,35.020326,עמיקם,773,עמיקם,3,32,323,45,NA,1,727,0.7,0.7,NA,1950,310,9,2022171878,82,351,1181,Ammiqam,http://gis.cbs.gov.il/Yeshuvim_allyears/start.aspx?stl=773
AMNUN,"Amnun, Israel",32.904989,35.571136,אמנון,1253,אמנון,2,22,221,55,NA,1,300,0.3,0.3,NA,1983,310,6,2537975663,7,253,1220,Amnun,http://gis.cbs.gov.il/Yeshuvim_allyears/start.aspx?stl=1253
AMQA,"Amka, Israel",32.977664,35.161807,עמקה,708,עמקה,2,24,245,4,NA,1,706,0.7,0.7,NA,1949,310,1,2154876490,81,201,1350,Amqa,http://gis.cbs.gov.il/Yeshuvim_allyears/start.aspx?stl=708
AMUQQA,"Amuka, Israel",32.997669,35.524801,עמוקה,1212,עמוקה,2,21,212,2,NA,1,130,0.1,0.1,NA,1980,370,19,2493976704,706,209,1230,Amuqqa,http://gis.cbs.gov.il/Yeshuvim_allyears/start.aspx?stl=1212
ANI'AM,Ani'am,32.956638,35.739718,אניעם,4012,אניעם,2,29,293,71,NA,1,513,0.5,0.5,NA,1978,310,1,2695476260,426,219,1270,Ani'am,http://gis.cbs.gov.il/Yeshuvim_allyears/start.aspx?stl=4012
ARAB AL NAIM,"Arab Al Naim, Israel",32.888073,35.290128,ערב אל נעים,1335,ערב אל נעים,2,24,241,56,241,2,750,NA,NA,0.8,NA,450,NA,2274475482,299,205,1360,Arab Al Naim,http://gis.cbs.gov.il/Yeshuvim_allyears/start.aspx?stl=1335
ARBEL,Mount Arbel,32.8241667,35.4986111,ארבל,701,ארבל,2,22,222,3,NA,1,714,0.7,0.7,NA,1949,310,1,2456774647,47,206,1240,Arbel,http://gis.cbs.gov.il/Yeshuvim_allyears/start.aspx?stl=701
ARGAMAN,"Argaman St, Jerusalem, Israel",31.7926519,35.2055917,ארגמן,3598,ארגמן,7,75,NA,75,NA,1,131,0.1,0.1,NA,1968,310,9,2494067548,-181,712,4164,Argaman,http://gis.cbs.gov.il/Yeshuvim_allyears/start.aspx?stl=3598
ARSUF,"Arsuf, Israel",32.212841,34.815977,ארסוף,1324,ארסוף,4,41,411,19,141,1,163,0.2,0.1,NA,1995,350,NA,1828768007,39,401,5120,Arsuf,http://gis.cbs.gov.il/Yeshuvim_allyears/start.aspx?stl=1324
ASERET,"Aseret, Israel",31.824913,34.747459,עשרת,591,עשרת,4,44,441,32,143,1,974,1,1,NA,1954,350,NA,1761763696,56,456,5230,Aseret,http://gis.cbs.gov.il/Yeshuvim_allyears/start.aspx?stl=591
ASFAR,Metzad,31.586152,35.187594,אספר,3754,אספר,7,77,NA,76,NA,1,688,0.7,0.7,NA,1983,370,8,2178561035,937,714,4352,Asfar,http://gis.cbs.gov.il/Yeshuvim_allyears/start.aspx?stl=3754
ASHALIM,"Ashalim, Israel",30.964245,34.699674,אשלים,1152,אשלים,6,62,626,48,NA,1,495,0.5,0.5,NA,1976,370,19,1713254166,327,620,3450,Ashalim,http://gis.cbs.gov.il/Yeshuvim_allyears/start.aspx?stl=1152
ASHDOT YA'AQOV(IHUD),"Ashdot Ya'akov Ihud, Israel",32.65877,35.579637,אשדות יעקב (איחוד),199,אשדות יעקב (איחוד),2,22,221,6,NA,1,984,1,1,NA,1933,330,15,2547172936,-200,214,1240,Ashdot Ya'aqov(Ihud),http://gis.cbs.gov.il/Yeshuvim_allyears/start.aspx?stl=199
ASHDOT YA'AQOV(ME'UHAD),"Ashdot Ya'akov Meuhad, Israel",32.664808,35.582769,אשדות יעקב (מאוחד),188,אשדות יעקב (מאוחד),2,22,221,6,NA,1,445,0.4,0.4,NA,1933,330,15,2549172982,-200,214,1240,Ashdot Ya'aqov(Me'uhad),http://gis.cbs.gov.il/Yeshuvim_allyears/start.aspx?stl=188
ASHERAT,"Oshrat, Israel",32.971645,35.1557,אשרת,1256,אשרת,2,24,245,4,NA,1,545,0.5,0.5,NA,1983,370,13,2148876406,57,201,1350,Asherat,http://gis.cbs.gov.il/Yeshuvim_allyears/start.aspx?stl=1256
ATERET,NA,NA,NA,עטרת,3658,עטרת,7,74,NA,73,NA,1,875,0.9,0.9,NA,1981,370,11,2167865658,698,711,4354,Ateret,http://gis.cbs.gov.il/Yeshuvim_allyears/start.aspx?stl=3658
AVDON,"Avdon, Israel",33.048792,35.179128,עבדון,892,עבדון,2,24,244,52,NA,1,635,0.6,0.6,NA,1952,310,1,2172177253,166,255,1350,Avdon,http://gis.cbs.gov.il/Yeshuvim_allyears/start.aspx?stl=892
AVENAT,"דרך אבנט 2, תל מונד, Israel",32.2490073,34.8910008,אבנת,3786,אבנת,7,75,NA,74,NA,1,193,0.2,0.2,NA,1983,370,NA,2414962074,-341,713,4355,Avenat,http://gis.cbs.gov.il/Yeshuvim_allyears/start.aspx?stl=3786
AVI'EL,"Aviel, Israel",32.531346,34.993493,אביאל,679,אביאל,3,32,324,45,NA,1,851,0.9,0.8,NA,1949,310,9,1996171533,52,351,1181,Avi'el,http://gis.cbs.gov.il/Yeshuvim_allyears/start.aspx?stl=679
AVI'EZER,"Aviezer, Israel",31.681996,35.018821,אביעזר,1070,אביעזר,1,11,112,26,444,1,855,0.9,0.9,NA,1958,310,2,2016662104,377,151,7004,Avi'ezer,http://gis.cbs.gov.il/Yeshuvim_allyears/start.aspx?stl=1070
AVIGEDOR,"Avigdor, Israel",31.711901,34.740369,אביגדור,819,אביגדור,6,61,611,33,143,1,779,0.8,0.8,NA,1950,310,1,1757162427,63,616,3830,Avigedor,http://gis.cbs.gov.il/Yeshuvim_allyears/start.aspx?stl=819
AVITAL,"Avital, Israel",32.557676,35.306412,אביטל,2052,אביטל,2,23,234,8,NA,1,520,0.5,0.5,NA,1953,310,1,2291271816,72,204,1420,Avital,http://gis.cbs.gov.il/Yeshuvim_allyears/start.aspx?stl=2052
AVIVIM,"Avivim, Israel",33.089381,35.470338,אביבים,1115,אביבים,2,21,212,2,NA,1,502,0.5,0.5,NA,1960,310,1,2444177707,725,209,1230,Avivim,http://gis.cbs.gov.il/Yeshuvim_allyears/start.aspx?stl=1115
AVNE ETAN,Avnei Eitan,32.824808,35.765777,אבני איתן,4011,אבני איתן,2,29,294,71,NA,1,681,0.7,0.7,NA,1978,310,2,2719674774,381,219,1270,Avne Etan,http://gis.cbs.gov.il/Yeshuvim_allyears/start.aspx?stl=4011
AVSHALOM,"Avshalom, Israel",31.195397,34.3312,אבשלום,1311,אבשלום,6,62,622,38,NA,1,264,0.3,0.2,NA,1990,370,10,1361956745,91,651,3430,Avshalom,http://gis.cbs.gov.il/Yeshuvim_allyears/start.aspx?stl=1311
AVTALYON,"Avtalion, Israel",32.835781,35.350442,אבטליון,1275,אבטליון,2,24,241,56,NA,1,394,0.4,0.4,NA,1987,370,10,2331474908,362,205,1360,Avtalyon,http://gis.cbs.gov.il/Yeshuvim_allyears/start.aspx?stl=1275
AYANOT,"Ayanot, Israel",31.91579999999999,34.768097,עיינות,156,עיינות,4,44,442,27,143,1,352,0.4,0.3,NA,1930,340,NA,1781664704,24,456,5230,Ayanot,http://gis.cbs.gov.il/Yeshuvim_allyears/start.aspx?stl=156
AZRI'EL,"Azri'el, Israel",32.262841,34.971133,עזריאל,837,עזריאל,4,41,411,18,141,1,897,0.9,0.9,NA,1951,310,2,1974268544,53,412,5120,Azri'el,http://gis.cbs.gov.il/Yeshuvim_allyears/start.aspx?stl=837
BAHAN,"Bahan, Israel",32.351831,35.018542,בחן,2043,בחן,4,41,412,16,141,1,951,1,0.9,NA,1953,330,15,2019669523,61,409,5150,Bahan,http://gis.cbs.gov.il/Yeshuvim_allyears/start.aspx?stl=2043
BALFURYA,"Balfouria, Israel",32.629988,35.296281,בלפוריה,94,בלפוריה,2,23,234,9,NA,1,445,0.4,0.4,NA,1922,310,1,2280872620,87,254,1420,Balfurya,http://gis.cbs.gov.il/Yeshuvim_allyears/start.aspx?stl=94
BAR'AM,"Bar'am, Israel",33.058979,35.433235,ברעם,667,ברעם,2,21,212,1,NA,1,589,0.6,0.5,NA,1949,330,15,2408677373,736,253,1230,Bar'am,http://gis.cbs.gov.il/Yeshuvim_allyears/start.aspx?stl=667
BAR GIYYORA,"Bar Giora, Israel",31.729683,35.073414,בר גיורא,823,בר גיורא,1,11,111,26,444,1,661,0.7,0.7,NA,1950,310,9,2069462636,699,151,7004,Bar Giyyora,http://gis.cbs.gov.il/Yeshuvim_allyears/start.aspx?stl=823
BAR YOHAY,"Bar Yohai, Israel",32.997704,35.44819,בר יוחאי,1191,בר יוחאי,2,21,212,2,NA,1,941,0.9,0.9,NA,1979,370,2,2422976699,713,209,1230,Bar Yohay,http://gis.cbs.gov.il/Yeshuvim_allyears/start.aspx?stl=1191
BARAQ,"Barak, Israel",32.542821000000004,35.265291,ברק,141,ברק,2,23,234,8,NA,1,425,0.4,0.4,NA,1956,310,1,2251371651,72,204,1420,Baraq,http://gis.cbs.gov.il/Yeshuvim_allyears/start.aspx?stl=141
BARQAY,"Barkai, Israel",32.476096,35.031044,ברקאי,617,ברקאי,3,32,324,14,NA,1,557,0.6,0.5,NA,1949,330,15,2029770901,65,351,1450,Barqay,http://gis.cbs.gov.il/Yeshuvim_allyears/start.aspx?stl=617
BAT HADAR,"Bat Hadar, Israel",31.648125,34.597146,בת הדר,1323,בת הדר,6,61,614,36,NA,1,732,0.7,0.7,NA,1995,350,NA,1618161736,58,633,3840,Bat Hadar,http://gis.cbs.gov.il/Yeshuvim_allyears/start.aspx?stl=1323
BAT HEN,"Bat Hen, Israel",32.360194,34.872388,בת חן,1361,בת חן,4,41,411,16,141,1,410,0.4,0.4,NA,1967,350,NA,1881869630,34,409,5120,Bat Hen,http://gis.cbs.gov.il/Yeshuvim_allyears/start.aspx?stl=1361
BAT SHELOMO,"Bat Shlomo, Israel",32.600335,35.003837,בת שלמה,33,בת שלמה,3,32,322,15,243,1,639,0.6,0.6,NA,1889,310,7,2005972291,92,303,1181,Bat Shelomo,http://gis.cbs.gov.il/Yeshuvim_allyears/start.aspx?stl=33
BE'ER GANNIM,"Be'er Ganim, Israel",31.700354,34.610934,באר גנים,1376,באר גנים,6,61,614,36,NA,1,660,0.7,0.7,NA,2012,370,NA,1628862323,31,633,3810,Be'er Gannim,http://gis.cbs.gov.il/Yeshuvim_allyears/start.aspx?stl=1376
BE'ER MILKA,"Be'er Milka, Israel",30.934112,34.405643,באר מילכה,1278,באר מילכה,6,62,626,48,NA,1,157,0.2,0.2,NA,2006,310,1,1432753827,217,620,3450,Be'er Milka,http://gis.cbs.gov.il/Yeshuvim_allyears/start.aspx?stl=1278
BE'ER ORA,"Be'er Ora, Israel",29.710166,34.987218,באר אורה,21,באר אורה,6,62,625,53,NA,1,734,0.7,0.7,NA,1950,370,19,1977040254,183,608,3460,Be'er Ora,http://gis.cbs.gov.il/Yeshuvim_allyears/start.aspx?stl=21
BE'EROT YIZHAQ,"Be'erot Yitzhak, Israel",32.042025,34.910221,בארות יצחק,450,בארות יצחק,4,42,422,25,142,1,415,0.4,0.4,NA,1948,330,3,1916866088,52,424,5130,Be'erot Yizhaq,http://gis.cbs.gov.il/Yeshuvim_allyears/start.aspx?stl=450
BEN AMMI,"Ben Ami, Israel",33.005369,35.122218,בן עמי,712,בן עמי,2,24,245,4,NA,1,766,0.8,0.7,NA,1949,310,1,2119076783,28,201,1350,Ben Ammi,http://gis.cbs.gov.il/Yeshuvim_allyears/start.aspx?stl=712
BEN SHEMEN (MOSHAV),NA,NA,NA,בן שמן (מושב),2013,בן שמן (מושב),4,43,432,25,142,1,870,0.9,0.9,NA,1952,310,1,1928365112,65,424,5280,Ben Shemen (Moshav),http://gis.cbs.gov.il/Yeshuvim_allyears/start.aspx?stl=2013
BEN SHEMEN(K.NO'AR),"Ben Shemen, 7311200, Israel",31.95966499999999,34.929056,בן שמן (כפר נוער),1084,בן שמן (כפר נוער),4,43,432,25,142,1,624,0.6,0.6,NA,1921,340,NA,1932665185,69,424,5280,Ben Shemen(K.No'ar),http://gis.cbs.gov.il/Yeshuvim_allyears/start.aspx?stl=1084
BENAYA,"Bnaya, Israel",31.84344399999999,34.751793,בניה,685,בניה,4,44,441,28,143,1,794,0.8,0.8,NA,1949,310,1,1767263907,35,456,5230,Benaya,http://gis.cbs.gov.il/Yeshuvim_allyears/start.aspx?stl=685
BENE ATAROT,"Bnei Atarot, Israel",32.02147,34.910146,בני עטרות,448,בני עטרות,4,42,422,25,142,1,995,1,1,NA,1948,310,1,1920465902,52,424,5130,Bene Atarot,http://gis.cbs.gov.il/Yeshuvim_allyears/start.aspx?stl=448
BENE DAROM,"Bnei Darom, Israel",31.82087,34.691609,בני דרום,592,בני דרום,4,44,441,29,143,1,707,0.7,0.7,NA,1949,320,2,1709163645,32,456,3870,Bene Darom,http://gis.cbs.gov.il/Yeshuvim_allyears/start.aspx?stl=592
BEQA'OT,"Beka'ot St, Bat Hefer, Israel",32.3382214,35.0128582,בקעות,3612,בקעות,7,75,NA,75,NA,1,187,0.2,0.2,NA,1972,310,10,2430468330,72,712,4164,Beqa'ot,http://gis.cbs.gov.il/Yeshuvim_allyears/start.aspx?stl=3612
BEQOA,"Beko'a, Israel",31.827899,34.924732,בקוע,864,בקוע,1,11,112,26,NA,1,691,0.7,0.7,NA,1951,310,1,1930663736,150,151,7004,Beqoa,http://gis.cbs.gov.il/Yeshuvim_allyears/start.aspx?stl=864
BEROR HAYIL,"Bror Hayil, Israel",31.55698499999999,34.646547,ברור חיל,428,ברור חיל,6,61,614,37,NA,1,918,0.9,0.9,NA,1948,330,15,1664960739,75,651,3840,Beror Hayil,http://gis.cbs.gov.il/Yeshuvim_allyears/start.aspx?stl=428
BEROSH,"מלכי ישראל 7, Tel Aviv-Yafo, 64163, Israel",32.080038,34.779689,ברוש,2060,ברוש,6,62,621,41,344,1,465,0.5,0.5,NA,1953,310,1,1650558666,129,625,3430,Berosh,http://gis.cbs.gov.il/Yeshuvim_allyears/start.aspx?stl=2060
BET ALFA,"Beit Alfa, Israel",32.516357,35.430499,בית אלפא,95,בית אלפא,2,23,232,8,NA,1,743,0.7,0.7,NA,1922,330,15,2407871368,-84,204,1430,Bet Alfa,http://gis.cbs.gov.il/Yeshuvim_allyears/start.aspx?stl=95
BET BERL,"Beit Berl, Israel",32.199789,34.926039,בית ברל,1076,בית ברל,4,42,421,20,141,1,196,0.2,0.2,NA,1947,340,NA,1932267865,69,417,5140,Bet Berl,http://gis.cbs.gov.il/Yeshuvim_allyears/start.aspx?stl=1076
BET GAMLI'EL,"Beit Gamliel, Israel",31.856127999999998,34.760947,בית גמליאל,571,בית גמליאל,4,44,441,29,143,1,960,1,1,NA,1949,310,2,1775264049,30,456,5230,Bet Gamli'el,http://gis.cbs.gov.il/Yeshuvim_allyears/start.aspx?stl=571
BET GUVRIN,"Beit Guvrin-Maresha National Park, Israel",31.601631,34.895464,בית גוברין,619,בית גוברין,6,61,612,35,NA,1,444,0.4,0.4,NA,1949,330,15,1901861345,267,632,3820,Bet Guvrin,http://gis.cbs.gov.il/Yeshuvim_allyears/start.aspx?stl=619
BET HAARAVA,"HaArava St, Beit Nekofa, Israel",31.804063,35.1248906,בית הערבה,3645,בית הערבה,7,75,NA,74,NA,1,183,0.2,0.2,NA,1980,330,15,2473963489,-315,713,4355,Bet HaArava,http://gis.cbs.gov.il/Yeshuvim_allyears/start.aspx?stl=3645
BET HAEMEQ,"Beit HaEmek, Israel",32.971014,35.145305,בית העמק,572,בית העמק,2,24,245,4,NA,1,536,0.5,0.5,NA,1949,330,15,2138876403,47,201,1350,Bet HaEmeq,http://gis.cbs.gov.il/Yeshuvim_allyears/start.aspx?stl=572
BET HAGADDI,"Beit HaGadi, Israel",31.422839,34.607878,בית הגדי,723,בית הגדי,6,62,621,39,NA,1,761,0.8,0.8,NA,1949,310,2,1626159279,148,651,3482,Bet HaGaddi,http://gis.cbs.gov.il/Yeshuvim_allyears/start.aspx?stl=723
BET HALEWI,"Beit HaLevi, Israel",32.351596,34.930443,בית הלוי,373,בית הלוי,4,41,411,16,141,1,802,0.8,0.8,NA,1945,310,1,1937569557,18,409,5120,Bet HaLewi,http://gis.cbs.gov.il/Yeshuvim_allyears/start.aspx?stl=373
BET HANAN,"Beit Hanan, Israel",31.935211,34.775596,בית חנן,159,בית חנן,4,44,442,27,143,1,569,0.6,0.6,NA,1930,310,1,1786864903,39,456,5210,Bet Hanan,http://gis.cbs.gov.il/Yeshuvim_allyears/start.aspx?stl=159
BET HANANYA,"Beit Hanania, Israel",32.529504,34.926734,בית חנניה,800,בית חנניה,3,32,324,15,NA,1,903,0.9,0.9,NA,1950,310,1,1932871493,10,303,1181,Bet Hananya,http://gis.cbs.gov.il/Yeshuvim_allyears/start.aspx?stl=800
BET HERUT,"Beit Herut, Israel",32.376223,34.873765,בית חירות,877,בית חירות,4,41,411,16,141,1,886,0.9,0.9,NA,1933,320,1,1878969842,19,409,5120,Bet Herut,http://gis.cbs.gov.il/Yeshuvim_allyears/start.aspx?stl=877
BET HILLEL,NA,NA,NA,בית הלל,322,בית הלל,2,21,211,55,NA,1,790,0.8,0.8,NA,1940,310,1,2568779040,87,253,1210,Bet Hillel,http://gis.cbs.gov.il/Yeshuvim_allyears/start.aspx?stl=322
BET LEHEM HAGELILIT,"Bethlehem of Galilee, Israel",32.734558,35.191271,בית לחם הגלילית,430,בית לחם הגלילית,2,23,237,9,242,1,788,0.8,0.8,NA,1948,310,1,2181773782,161,254,1440,Bet Lehem HaGelilit,http://gis.cbs.gov.il/Yeshuvim_allyears/start.aspx?stl=430
BET ME'IR,"Beit Meir, Israel",31.794786,35.036753,בית מאיר,751,בית מאיר,1,11,111,26,444,1,804,0.8,0.8,NA,1950,310,2,2035763349,576,151,7004,Bet Me'ir,http://gis.cbs.gov.il/Yeshuvim_allyears/start.aspx?stl=751
BET NEHEMYA,"Beit Nehemia, Israel",31.977142,34.953835,בית נחמיה,784,בית נחמיה,4,43,432,25,142,1,886,0.9,0.9,NA,1950,310,6,1958765375,82,424,5160,Bet Nehemya,http://gis.cbs.gov.il/Yeshuvim_allyears/start.aspx?stl=784
BET NEQOFA,"Beit Nekofa, Israel",31.804392,35.126876,בית נקופה,672,בית נקופה,1,11,111,26,444,1,654,0.7,0.6,NA,1949,310,1,2120263464,662,151,6129,Bet Neqofa,http://gis.cbs.gov.il/Yeshuvim_allyears/start.aspx?stl=672
BET NIR,"Beit Nir, Israel",31.647627,34.873107,בית ניר,16,בית ניר,6,61,612,35,NA,1,594,0.6,0.6,NA,1955,330,15,1880461729,241,632,3820,Bet Nir,http://gis.cbs.gov.il/Yeshuvim_allyears/start.aspx?stl=16
BET OREN,"Beit Oren, Israel",32.731601,35.00632,בית אורן,317,בית אורן,3,32,322,15,223,1,470,0.5,0.4,NA,1939,330,15,2008573741,365,303,1140,Bet Oren,http://gis.cbs.gov.il/Yeshuvim_allyears/start.aspx?stl=317
BET OVED,"Beit Oved, Israel",31.921287,34.774905,בית עובד,202,בית עובד,4,44,442,27,143,1,303,0.3,0.3,NA,1933,310,1,1787164773,31,456,5210,Bet Oved,http://gis.cbs.gov.il/Yeshuvim_allyears/start.aspx?stl=202
BET QESHET,"Beit Keshet, Israel",32.718446,35.394952,בית קשת,365,בית קשת,2,22,222,3,NA,1,605,0.6,0.6,NA,1944,330,15,2372073606,191,206,1240,Bet Qeshet,http://gis.cbs.gov.il/Yeshuvim_allyears/start.aspx?stl=365
BET RIMMON,"Beit Rimon, Israel",32.781845,35.327738,בית רימון,1162,בית רימון,2,23,237,3,NA,1,656,0.7,0.7,NA,1977,330,3,2310774302,396,206,1410,Bet Rimmon,http://gis.cbs.gov.il/Yeshuvim_allyears/start.aspx?stl=1162
BET SHE'ARIM,"Bet She'arim National Park, Kiryat Tiv'on, Israel",32.703757,35.129933,בית שערים,248,בית שערים,2,23,235,9,NA,1,762,0.8,0.8,NA,1936,310,1,2169973357,74,254,1440,Bet She'arim,http://gis.cbs.gov.il/Yeshuvim_allyears/start.aspx?stl=248
BET SHIQMA,"Beit Shikma, Israel",31.637735,34.610074,בית שקמה,747,בית שקמה,6,61,614,36,NA,1,859,0.9,0.8,NA,1950,310,1,1628461632,53,633,3840,Bet Shiqma,http://gis.cbs.gov.il/Yeshuvim_allyears/start.aspx?stl=747
BET UZZI'EL,"Beit Uziel, Israel",31.87005,34.904858,בית עוזיאל,301,בית עוזיאל,4,43,432,30,143,1,635,0.6,0.6,NA,1956,310,2,1911464202,128,426,5220,Bet Uzzi'el,http://gis.cbs.gov.il/Yeshuvim_allyears/start.aspx?stl=301
BET YANNAY,"Beit Yanai, Israel",32.381729,34.863507,בית ינאי,200,בית ינאי,4,41,411,16,141,1,392,0.4,0.4,NA,1933,310,10,1873769866,16,409,5120,Bet Yannay,http://gis.cbs.gov.il/Yeshuvim_allyears/start.aspx?stl=200
BET YOSEF,"Beit Yosef, Israel",32.558698,35.55277299999999,בית יוסף,265,בית יוסף,2,23,231,7,NA,1,448,0.4,0.4,NA,1937,310,1,2520171838,-228,202,1430,Bet Yosef,http://gis.cbs.gov.il/Yeshuvim_allyears/start.aspx?stl=265
BET ZEID,"Alexander Zeid St, Kiryat Tiv'on, Israel",32.709465,35.124219600000004,בית זיד,353,בית זיד,2,23,235,9,NA,1,82,0.1,0.1,NA,1943,350,NA,2110873410,108,254,1160,Bet Zeid,http://gis.cbs.gov.il/Yeshuvim_allyears/start.aspx?stl=353
BET ZERA,"Beit Zera, Israel",32.689296,35.574062,בית זרע,143,בית זרע,2,22,221,6,NA,1,579,0.6,0.6,NA,1926,330,15,2540573277,-200,214,1240,Bet Zera,http://gis.cbs.gov.il/Yeshuvim_allyears/start.aspx?stl=143
BET ZEVI,"Uri Tsvi Grinberg St, Beit She'an, Israel",32.4888485,35.4891001,בית צבי,212,בית צבי,3,32,321,15,223,1,252,0.3,0.3,NA,1953,340,NA,1974573615,46,303,1181,Bet Zevi,http://gis.cbs.gov.il/Yeshuvim_allyears/start.aspx?stl=212
BEZET,"Betzet, Israel",33.070047,35.132636,בצת,589,בצת,2,24,245,4,NA,1,257,0.2,0.2,NA,1949,310,1,2129677511,29,201,1350,Bezet,http://gis.cbs.gov.il/Yeshuvim_allyears/start.aspx?stl=589
BIRIYYA,"Birya, Israel",32.978108,35.503096,בירייה,368,בירייה,2,21,212,2,NA,1,820,0.8,0.8,NA,1945,350,NA,2471076480,812,209,1230,Biriyya,http://gis.cbs.gov.il/Yeshuvim_allyears/start.aspx?stl=368
BITAN AHARON,"Bitan Aharon, Israel",32.364928,34.86956,ביתן אהרן,252,ביתן אהרן,4,41,411,16,141,1,377,0.4,0.4,NA,1936,310,10,1879969687,26,409,5120,Bitan Aharon,http://gis.cbs.gov.il/Yeshuvim_allyears/start.aspx?stl=252
BITHA,"Bitha, Israel",31.333869,34.634318,בטחה,762,בטחה,6,62,622,42,344,1,752,0.8,0.7,NA,1950,310,1,1650258264,120,651,3430,Bitha,http://gis.cbs.gov.il/Yeshuvim_allyears/start.aspx?stl=762
BNE DEQALIM,"Bnei Dkalim, Israel",31.517188,34.917033000000004,בני דקלים,1368,בני דקלים,6,61,612,50,NA,1,771,0.8,0.8,NA,2009,370,11,1921860287,388,634,3820,Bne Dkalim,http://gis.cbs.gov.il/Yeshuvim_allyears/start.aspx?stl=1368
BNE NETSARIM,"Bnei Netsarim, Israel",31.14103399999999,34.318742,בני נצרים,1363,בני נצרים,6,62,622,38,NA,1,610,0.6,0.6,NA,2010,310,11,1346156141,99,651,3430,Bne Netsarim,http://gis.cbs.gov.il/Yeshuvim_allyears/start.aspx?stl=1363
BRUKHIN,Bruchin,32.082231,35.094113,ברוכין,3744,ברוכין,7,73,NA,72,NA,1,818,0.8,0.8,NA,2012,370,2,2083266528,391,710,4164,Brukhin,http://gis.cbs.gov.il/Yeshuvim_allyears/start.aspx?stl=3744
DAFNA,"Dafna, Israel",33.23075,35.638268,דפנה,302,דפנה,2,21,211,1,NA,1,936,0.9,0.9,NA,1939,330,15,2599179280,141,253,1210,Dafna,http://gis.cbs.gov.il/Yeshuvim_allyears/start.aspx?stl=302
DAHI,"Ed Dahi, Israel",32.622491,35.343604,דחי,475,דחי,2,23,234,66,NA,2,648,NA,NA,0.6,NA,450,NA,2325872519,415,251,1420,Dahi,http://gis.cbs.gov.il/Yeshuvim_allyears/start.aspx?stl=475
DALIYYA,"Dalia, Israel",32.58925,35.076965,דלייה,300,דלייה,2,23,236,13,NA,1,806,0.8,0.7,NA,1939,330,15,2072972171,204,254,1420,Daliyya,http://gis.cbs.gov.il/Yeshuvim_allyears/start.aspx?stl=300
DALTON,"Dalton, Israel",33.016553,35.489911,דלתון,431,דלתון,2,21,212,2,NA,1,868,0.9,0.9,NA,1950,310,2,2460576912,809,209,1230,Dalton,http://gis.cbs.gov.il/Yeshuvim_allyears/start.aspx?stl=431
DAN,"Dan, Israel",33.239637,35.653953,דן,303,דן,2,21,211,1,NA,1,705,0.7,0.7,NA,1939,330,15,2613179391,175,253,1210,Dan,http://gis.cbs.gov.il/Yeshuvim_allyears/start.aspx?stl=303
DAVERAT,NA,NA,NA,דברת,407,דברת,2,23,234,9,NA,1,423,0.4,0.4,NA,1946,330,15,2330572807,174,254,1420,Daverat,http://gis.cbs.gov.il/Yeshuvim_allyears/start.aspx?stl=407
DEGANYA ALEF,"Degania Alef, Israel",32.706938,35.575062,דגניה א',62,דגניה א',2,22,221,6,NA,1,752,0.6,0.6,NA,1909,330,15,2541573488,-200,214,1240,Deganya Alef,http://gis.cbs.gov.il/Yeshuvim_allyears/start.aspx?stl=62
DEGANYA BET,"Degania Bet, Israel",32.69907,35.577551,דגניה ב',79,דגניה ב',2,22,221,6,NA,1,650,0.7,0.6,NA,1920,330,15,2542173403,-198,214,1240,Deganya Bet,http://gis.cbs.gov.il/Yeshuvim_allyears/start.aspx?stl=79
DEIR RAFAT,"Deir Rafat, Israel",31.77652999999999,34.947439,דייר ראפאת,493,דייר ראפאת,1,11,112,26,444,2,91,NA,NA,0.1,NA,440,NA,1950863156,248,151,7004,Deir Rafat,http://gis.cbs.gov.il/Yeshuvim_allyears/start.aspx?stl=493
DEMEIDE,"Dmeide, Israel",32.8149647,35.2265642,דמיידה,1317,דמיידה,2,24,241,56,241,2,474,NA,NA,0.5,NA,450,NA,2216374673,204,205,1360,Demeide,http://gis.cbs.gov.il/Yeshuvim_allyears/start.aspx?stl=1317
DEQEL,"Dekel, Israel",31.195908,34.346771,דקל,1241,דקל,6,62,622,38,NA,1,310,0.3,0.3,NA,1982,310,10,1377356740,103,651,3430,Deqel,http://gis.cbs.gov.il/Yeshuvim_allyears/start.aspx?stl=1241
DEVIRA,"Dvir, Israel",31.411699,34.825177,דבירה,849,דבירה,6,62,623,41,341,1,848,0.8,0.8,NA,1951,330,15,1833659122,309,625,3481,Devira,http://gis.cbs.gov.il/Yeshuvim_allyears/start.aspx?stl=849
DEVORA,"Devora Omer St, Rishon LeTsiyon, Israel",31.9830738,34.8072822,דבורה,146,דבורה,2,23,234,8,NA,1,222,0.2,0.2,NA,1956,310,1,2250571762,69,204,1420,Devora,http://gis.cbs.gov.il/Yeshuvim_allyears/start.aspx?stl=146
DISHON,"Dishon, Israel",33.082318,35.517572,דישון,2063,דישון,2,21,212,55,NA,1,352,0.4,0.3,NA,1953,310,6,2488277637,442,253,1210,Dishon,http://gis.cbs.gov.il/Yeshuvim_allyears/start.aspx?stl=2063
DOR,"Dor, Israel",32.607802,34.923316,דור,738,דור,3,32,321,15,243,1,410,0.4,0.4,NA,1949,310,1,1928472374,4,303,1181,Dor,http://gis.cbs.gov.il/Yeshuvim_allyears/start.aspx?stl=738
DOROT,"Dorot, Israel",31.507207,34.645725,דורות,336,דורות,6,61,614,37,NA,1,797,0.8,0.8,NA,1941,330,15,1663560173,106,651,3840,Dorot,http://gis.cbs.gov.il/Yeshuvim_allyears/start.aspx?stl=336
DOVEV,"Dovev, Israel",33.0508,35.407747,"דוב""ב",1067,"דוב""ב",2,21,212,2,NA,1,475,0.5,0.5,NA,1963,310,1,2383977297,768,209,1230,Dovev,http://gis.cbs.gov.il/Yeshuvim_allyears/start.aspx?stl=1067
EIN AL-ASAD,"Ein al-Asad, Israel",32.940754,35.401027,עין אל-אסד,546,עין אל-אסד,2,24,243,2,NA,2,866,NA,NA,0.9,NA,450,NA,2376876064,535,209,1310,Ein Al-Asad,http://gis.cbs.gov.il/Yeshuvim_allyears/start.aspx?stl=546
EIN HOD,"Ein Hod, Israel",32.700292,34.982716,עין חוד,1320,עין חוד,3,32,322,15,243,2,277,NA,NA,0.3,NA,450,NA,2002573302,236,303,1181,Ein Hod,http://gis.cbs.gov.il/Yeshuvim_allyears/start.aspx?stl=1320
EL-ROM,El-Rum,33.180519,35.770095,אל -רום,4003,אל -רום,2,29,292,71,NA,1,372,0.4,0.4,NA,1971,330,15,2723278733,1049,219,1270,El-Rom,http://gis.cbs.gov.il/Yeshuvim_allyears/start.aspx?stl=4003
ELI-AD,NA,NA,NA,אלי-עד,4002,אלי-עד,2,29,294,71,NA,1,382,0.4,0.4,NA,1968,310,1,2691974579,368,219,1270,Eli-Ad,http://gis.cbs.gov.il/Yeshuvim_allyears/start.aspx?stl=4002
ELIAV,"Eliav, Israel",31.530203,34.928414,אליאב,1365,אליאב,6,61,612,50,NA,1,298,0.3,0.3,NA,2013,370,NA,1935760416,363,634,3820,Eliav,http://gis.cbs.gov.il/Yeshuvim_allyears/start.aspx?stl=1365
ELIFAZ,"Elifaz, Israel",29.79624799999999,35.012094,אליפז,1248,אליפז,6,62,625,53,NA,1,152,0.1,0.1,NA,1982,330,15,2009541196,77,608,3460,Elifaz,http://gis.cbs.gov.il/Yeshuvim_allyears/start.aspx?stl=1248
ELIFELET,"Elifelet, Israel",32.947834,35.548516,אליפלט,730,אליפלט,2,21,213,55,NA,1,614,0.6,0.6,NA,1949,310,1,2515276148,333,253,1220,Elifelet,http://gis.cbs.gov.il/Yeshuvim_allyears/start.aspx?stl=730
ELON,"201 Lyons Ave, Newark, NJ 07112, USA",40.710114,-74.213679,אילון,294,אילון,2,24,244,4,NA,1,956,1,0.9,NA,1938,330,15,2207077423,293,201,1350,Elon,http://gis.cbs.gov.il/Yeshuvim_allyears/start.aspx?stl=294
ELOT,"Eilot, Israel",29.580548,34.963023,אילות,1126,אילות,6,62,625,53,NA,1,319,0.3,0.3,NA,1962,330,15,1960738816,73,608,3460,Elot,http://gis.cbs.gov.il/Yeshuvim_allyears/start.aspx?stl=1126
ELQOSH,"Elkosh, Israel",33.034294,35.326348,אלקוש,603,אלקוש,2,24,244,52,NA,1,309,0.3,0.3,NA,1949,310,1,2306077091,637,255,1320,Elqosh,http://gis.cbs.gov.il/Yeshuvim_allyears/start.aspx?stl=603
ELYAQIM,"Eliakim, Israel",32.633345,35.067613,אליקים,682,אליקים,2,23,236,13,NA,1,882,0.9,0.9,NA,1949,310,1,2065872642,229,254,1420,Elyaqim,http://gis.cbs.gov.il/Yeshuvim_allyears/start.aspx?stl=682
ELYASHIV,"Elyashiv, Israel",32.380196,34.909945,אלישיב,204,אלישיב,4,41,411,16,141,1,730,0.7,0.7,NA,1933,310,7,1917069855,16,409,5120,Elyashiv,http://gis.cbs.gov.il/Yeshuvim_allyears/start.aspx?stl=204
EMUNIM,"Emunim, Israel",31.743885,34.674492,אמונים,772,אמונים,6,61,611,33,143,1,938,0.9,0.9,NA,1950,310,1,1694062801,31,616,3830,Emunim,http://gis.cbs.gov.il/Yeshuvim_allyears/start.aspx?stl=772
EN GEDI,"Ein Gedi Reserve, Ein Gedi, Israel",31.4664,35.387983,עין גדי,2042,עין גדי,6,62,624,51,NA,1,588,0.6,0.5,NA,1953,330,15,2365959562,-304,656,3480,En Gedi,http://gis.cbs.gov.il/Yeshuvim_allyears/start.aspx?stl=2042
EN GEV,Ein Gev,32.783393,35.640119,עין גב,273,עין גב,2,22,221,6,NA,1,643,0.6,0.6,NA,1937,330,15,2601774320,-201,214,1240,En Gev,http://gis.cbs.gov.il/Yeshuvim_allyears/start.aspx?stl=273
EN HAEMEQ,"Ein HaEmek, Israel",32.629664,35.082246,עין העמק,367,עין העמק,2,23,236,13,NA,1,771,0.8,0.8,NA,1944,350,NA,2082272605,240,254,1420,En HaEmeq,http://gis.cbs.gov.il/Yeshuvim_allyears/start.aspx?stl=367
EN HAHORESH,"Ein HaHoresh, Israel",32.385871,34.939994,עין החורש,167,עין החורש,4,41,411,16,141,1,782,0.8,0.8,NA,1931,330,15,1945469912,21,409,5120,En HaHoresh,http://gis.cbs.gov.il/Yeshuvim_allyears/start.aspx?stl=167
EN HANAZIV,"Ein HaNatziv, Israel",32.47071,35.501973,"עין הנצי""ב",383,"עין הנצי""ב",2,23,231,7,NA,1,618,0.6,0.6,NA,1946,330,3,2473870851,-146,202,1430,En HaNaziv,http://gis.cbs.gov.il/Yeshuvim_allyears/start.aspx?stl=383
EN HAROD (IHUD),"Ein Harod, Israel",32.563099,35.391666,עין חרוד (איחוד),89,עין חרוד (איחוד),2,23,232,8,NA,1,534,0.5,0.5,NA,1921,330,15,2369971883,42,204,1420,En Harod (Ihud),http://gis.cbs.gov.il/Yeshuvim_allyears/start.aspx?stl=89
EN HAROD(ME'UHAD),"Ein Harod, Israel",32.556806,35.392995,עין חרוד (מאוחד),82,עין חרוד (מאוחד),2,23,232,8,NA,1,739,0.7,0.7,NA,1921,330,15,2370271825,-9,204,1420,En Harod(Me'uhad),http://gis.cbs.gov.il/Yeshuvim_allyears/start.aspx?stl=82
EN HASHELOSHA,NA,NA,NA,עין השלושה,676,עין השלושה,6,62,622,38,NA,1,399,0.4,0.4,NA,1950,330,6,1430658468,100,651,3430,En HaShelosha,http://gis.cbs.gov.il/Yeshuvim_allyears/start.aspx?stl=676
EN HASHOFET,"Ein HaShofet, Israel",32.596811,35.100445,עין השופט,270,עין השופט,2,23,236,13,NA,1,836,0.8,0.7,NA,1937,330,15,2096872240,262,254,1420,En HaShofet,http://gis.cbs.gov.il/Yeshuvim_allyears/start.aspx?stl=270
EN HOD,"Ein Hod, Israel",32.700292,34.982716,עין הוד,74,עין הוד,3,32,322,15,243,1,607,0.6,0.6,NA,1954,370,19,1987073396,131,303,1181,En Hod,http://gis.cbs.gov.il/Yeshuvim_allyears/start.aspx?stl=74
EN IRON,"Ein Iron, Israel",32.484427,35.010069,עין עירון,223,עין עירון,3,32,324,14,NA,1,571,0.6,0.6,NA,1934,310,1,2011670996,61,351,1180,En Iron,http://gis.cbs.gov.il/Yeshuvim_allyears/start.aspx?stl=223
EN KAREM-B.S.HAQLA'I,"Ze'ev Khaklai St, Jerusalem, Israel",31.77256749999999,35.1846719,"עין כרם-בי""ס חקלאי",1056,"עין כרם-בי""ס חקלאי",1,11,111,26,444,1,196,0.2,0.2,NA,1952,340,NA,2145863172,574,151,6130,En Karem-B.S.Haqla'i,http://gis.cbs.gov.il/Yeshuvim_allyears/start.aspx?stl=1056
EN KARMEL,NA,NA,NA,עין כרמל,426,עין כרמל,3,32,321,15,243,1,896,0.9,0.9,NA,1947,330,15,1958973142,22,303,1181,En Karmel,http://gis.cbs.gov.il/Yeshuvim_allyears/start.aspx?stl=426
EN SHEMER,"Ein Shemer, Israel",32.461917,35.00673,עין שמר,139,עין שמר,3,32,324,14,NA,1,559,0.6,0.5,NA,1927,330,15,2009170774,43,351,1180,En Shemer,http://gis.cbs.gov.il/Yeshuvim_allyears/start.aspx?stl=139
EN TAMAR,"Ein Tamar, Israel",30.943594,35.37407,עין תמר,1251,עין תמר,6,62,624,51,NA,1,190,0.2,0.2,NA,1982,310,10,2345153915,-302,656,3480,En Tamar,http://gis.cbs.gov.il/Yeshuvim_allyears/start.aspx?stl=1251
EN YAHAV,"Ein Yahav, Israel",30.658757,35.239656,עין יהב,806,עין יהב,6,62,625,54,NA,1,679,0.7,0.7,NA,1951,310,1,2226850755,-75,657,3450,En Yahav,http://gis.cbs.gov.il/Yeshuvim_allyears/start.aspx?stl=806
EN ZIWAN,`En Ziwan,32.5958333,35.5377778,עין זיוון,4503,עין זיוון,2,29,292,71,NA,1,296,0.3,0.3,NA,1968,330,15,2746877807,961,219,1270,En Ziwan,http://gis.cbs.gov.il/Yeshuvim_allyears/start.aspx?stl=4503
EN ZURIM,"Ein Tzurim, Israel",31.694936,34.718683,עין צורים,622,עין צורים,6,61,611,34,NA,1,797,0.8,0.8,NA,1949,330,3,1735162270,52,631,3830,En Zurim,http://gis.cbs.gov.il/Yeshuvim_allyears/start.aspx?stl=622
ENAT,"Einat, Israel",32.081948,34.937514,עינת,871,עינת,4,42,422,20,142,1,779,0.8,0.8,NA,1925,330,15,1943566554,50,417,5160,Enat,http://gis.cbs.gov.il/Yeshuvim_allyears/start.aspx?stl=871
ENAV,Einav,32.283594,35.125198,ענב,3712,ענב,7,73,NA,72,NA,1,749,0.7,0.7,NA,1981,370,11,2121068786,300,710,4164,Enav,http://gis.cbs.gov.il/Yeshuvim_allyears/start.aspx?stl=3712
EREZ,"Erez, Israel",31.55984,34.564889,ארז,714,ארז,6,61,614,37,NA,1,478,0.5,0.5,NA,1949,330,15,1588860773,41,651,3840,Erez,http://gis.cbs.gov.il/Yeshuvim_allyears/start.aspx?stl=714
ESHBAL,"Eshbal, Israel",32.876984,35.30601,אשבל,1276,אשבל,2,24,241,56,241,1,104,0.1,0.1,NA,1979,330,10,2288975354,270,205,1360,Eshbal,http://gis.cbs.gov.il/Yeshuvim_allyears/start.aspx?stl=1276
ESHBOL,"Eshbol, Israel",31.44551599999999,34.666654,אשבול,71,אשבול,6,62,621,42,NA,1,527,0.5,0.5,NA,1955,310,1,1683959504,167,651,3482,Eshbol,http://gis.cbs.gov.il/Yeshuvim_allyears/start.aspx?stl=71
ESHEL HANASI,"Eshel HaNasi, Israel",31.326828,34.697497,אשל הנשיא,2021,אשל הנשיא,6,62,622,42,344,1,335,0.3,0.3,NA,1952,340,NA,1711958167,192,651,3430,Eshel HaNasi,http://gis.cbs.gov.il/Yeshuvim_allyears/start.aspx?stl=2021
ESHHAR,"Eshhar, Israel",32.885084,35.299622,אשחר,1188,אשחר,2,24,241,56,241,1,879,0.9,0.9,NA,1986,370,13,2284175455,363,205,1360,Eshhar,http://gis.cbs.gov.il/Yeshuvim_allyears/start.aspx?stl=1188
ESHKOLOT,Eshkolot,31.391171,34.904856,אשכולות,3722,אשכולות,7,77,NA,78,NA,1,515,0.5,0.5,NA,1982,370,11,1909758883,589,715,4352,Eshkolot,http://gis.cbs.gov.il/Yeshuvim_allyears/start.aspx?stl=3722
ETAN,"Eitan, Israel",31.572213,34.747909,איתן,37,איתן,6,61,612,34,NA,1,442,0.4,0.4,NA,1955,310,2,1761460898,156,631,3820,Etan,http://gis.cbs.gov.il/Yeshuvim_allyears/start.aspx?stl=37
ETANIM,"Haifa, Israel",32.803326,34.975774,איתנים,886,איתנים,1,11,111,26,444,1,72,0.1,0.1,NA,1952,340,NA,2091163181,765,151,7004,Etanim,http://gis.cbs.gov.il/Yeshuvim_allyears/start.aspx?stl=886
EVEN MENAHEM,"Even Menachem, Israel",33.075143,35.295219,אבן מנחם,1081,אבן מנחם,2,24,244,52,NA,1,270,0.3,0.3,NA,1960,310,1,2278277545,605,255,1350,Even Menahem,http://gis.cbs.gov.il/Yeshuvim_allyears/start.aspx?stl=1081
EVEN SAPPIR,NA,NA,NA,אבן ספיר,783,אבן ספיר,1,11,111,26,444,1,730,0.7,0.7,NA,1950,310,1,2128463002,615,151,6130,Even Sappir,http://gis.cbs.gov.il/Yeshuvim_allyears/start.aspx?stl=783
EVRON,"Evron, Israel",32.991149,35.100031,עברון,376,עברון,2,24,245,4,241,1,774,0.8,0.7,NA,1945,330,15,2097076629,26,201,1350,Evron,http://gis.cbs.gov.il/Yeshuvim_allyears/start.aspx?stl=376
EYAL,"Eyal, Israel",32.210711,34.978259,אייל,716,אייל,4,42,421,20,141,1,485,0.5,0.5,NA,1949,330,15,1982167981,76,417,5150,Eyal,http://gis.cbs.gov.il/Yeshuvim_allyears/start.aspx?stl=716
EZER,"Ezer, Israel",31.736151,34.671447,עזר,1149,עזר,6,61,611,33,143,1,831,0.8,0.8,NA,1966,350,NA,1689262725,32,616,3830,Ezer,http://gis.cbs.gov.il/Yeshuvim_allyears/start.aspx?stl=1149
EZUZ,"Ezuz, Israel",30.792202,34.472404,עזוז,328,עזוז,6,62,626,48,NA,1,76,0.1,0.1,NA,1984,370,19,1494252264,331,620,3450,Ezuz,http://gis.cbs.gov.il/Yeshuvim_allyears/start.aspx?stl=328
GA'ASH,"Ga'ash, Israel",32.228477,34.824411,געש,842,געש,4,41,411,19,141,1,700,0.7,0.7,NA,1951,330,15,1836568180,29,401,5120,Ga'ash,http://gis.cbs.gov.il/Yeshuvim_allyears/start.aspx?stl=842
GA'TON,"Ga'aton, Israel",33.006075,35.213831,געתון,463,געתון,2,24,243,4,NA,1,587,0.6,0.6,NA,1948,330,15,2204176793,343,201,1350,Ga'ton,http://gis.cbs.gov.il/Yeshuvim_allyears/start.aspx?stl=463
GADISH,"Gadish, Israel",32.558844,35.24443,גדיש,145,גדיש,2,23,234,8,NA,1,402,0.4,0.4,NA,1956,310,1,2232471829,66,204,1420,Gadish,http://gis.cbs.gov.il/Yeshuvim_allyears/start.aspx?stl=145
GADOT,Gadot,33.018208,35.619547,גדות,35,גדות,2,21,213,1,NA,1,407,0.4,0.4,NA,1949,330,15,2582276940,115,253,1220,Gadot,http://gis.cbs.gov.il/Yeshuvim_allyears/start.aspx?stl=35
GAL'ED (EVEN YIZHAQ),"Gal'ed, Israel",32.558075,35.076559,גלעד (אבן יצחק),369,גלעד (אבן יצחק),2,23,236,13,NA,1,477,0.5,0.5,NA,1945,330,15,2074471810,185,254,1420,Gal'ed (Even Yizhaq),http://gis.cbs.gov.il/Yeshuvim_allyears/start.aspx?stl=369
GAL'ON,"Gal On, Israel",31.63337099999999,34.848898,גלאון,393,גלאון,6,61,611,35,NA,1,382,0.4,0.4,NA,1946,330,15,1856261577,199,632,3820,Gal'on,http://gis.cbs.gov.il/Yeshuvim_allyears/start.aspx?stl=393
GAN HADAROM,"Gan HaDarom, Israel",31.804056,34.69987,גן הדרום,1072,גן הדרום,4,44,441,32,143,1,577,0.6,0.6,NA,1953,310,10,1717663474,39,456,3830,Gan HaDarom,http://gis.cbs.gov.il/Yeshuvim_allyears/start.aspx?stl=1072
GAN HASHOMERON,"Gan HaShomron, Israel",32.465007,34.999047,גן השומרון,225,גן השומרון,3,32,324,14,NA,1,820,0.8,0.8,NA,1934,310,10,2000870763,44,351,1180,Gan HaShomeron,http://gis.cbs.gov.il/Yeshuvim_allyears/start.aspx?stl=225
GAN HAYYIM,"Gan Haim, Israel",32.195761,34.906957,גן חיים,239,גן חיים,4,42,421,20,141,1,815,0.8,0.8,NA,1935,310,1,1912967798,60,417,5140,Gan Hayyim,http://gis.cbs.gov.il/Yeshuvim_allyears/start.aspx?stl=239
GAN SHELOMO,"Kvutzat Shiller, Israel",31.878777,34.798901,גן שלמה,144,גן שלמה,4,44,441,28,143,1,539,0.5,0.5,NA,1927,330,15,1810664288,45,456,5230,Gan Shelomo,http://gis.cbs.gov.il/Yeshuvim_allyears/start.aspx?stl=144
GAN SHEMU'EL,"HaGan St, Kfar Warburg, Israel",31.7184073,34.7292776,גן שמואל,72,גן שמואל,3,32,324,14,NA,1,883,0.9,0.9,NA,1913,330,15,1955370657,26,351,1180,Gan Shemu'el,http://gis.cbs.gov.il/Yeshuvim_allyears/start.aspx?stl=72
GAN SOREQ,"Gan Sorek, Israel",31.944011,34.758322,גן שורק,311,גן שורק,4,44,442,27,143,1,697,0.7,0.7,NA,1950,310,1,1775365029,37,456,5210,Gan Soreq,http://gis.cbs.gov.il/Yeshuvim_allyears/start.aspx?stl=311
GAN YOSHIYYA,"Gan Yoshiya, Israel",32.349487,34.996245,גן יאשיה,734,גן יאשיה,4,41,412,16,141,1,989,1,1,NA,1949,310,1,1996469519,32,409,5120,Gan Yoshiyya,http://gis.cbs.gov.il/Yeshuvim_allyears/start.aspx?stl=734
GANNE AM,"Ganei Am, Israel",32.149838,34.903358,גני עם,218,גני עם,4,42,421,20,142,1,255,0.3,0.3,NA,1934,350,NA,1908667313,34,417,5140,Ganne Am,http://gis.cbs.gov.il/Yeshuvim_allyears/start.aspx?stl=218
GANNE HADAR,"Ganei Hadar East, Israel",31.8782413,34.857588,גני הדר,1103,גני הדר,4,43,432,30,143,1,289,0.3,0.3,NA,1958,350,NA,1862764289,89,426,5230,Ganne Hadar,http://gis.cbs.gov.il/Yeshuvim_allyears/start.aspx?stl=1103
GANNE TAL,"Ganei Tal, Israel",31.788573,34.791392,גני טל,1371,גני טל,4,44,441,31,143,1,743,0.7,0.7,NA,2010,370,2,1804263293,78,456,5230,Ganne Tal,http://gis.cbs.gov.il/Yeshuvim_allyears/start.aspx?stl=1371
GANNE YOHANAN,"Yohanan HaSandlar St, Bnei Brak, Israel",32.0733225,34.8426098,גני יוחנן,862,גני יוחנן,4,44,441,30,143,1,632,0.6,0.6,NA,1950,310,1,1848164064,63,426,5230,Ganne Yohanan,http://gis.cbs.gov.il/Yeshuvim_allyears/start.aspx?stl=862
GANNOT,"Ganot, Israel",32.018204,34.825877,גנות,836,גנות,4,43,432,40,133,1,614,0.6,0.6,NA,1953,310,10,1839465836,27,425,5210,Gannot,http://gis.cbs.gov.il/Yeshuvim_allyears/start.aspx?stl=836
GANNOT HADAR,"Ganot Hadar, Israel",32.32174,34.900715,גנות הדר,549,גנות הדר,4,41,411,18,141,1,935,0.9,0.9,NA,1964,350,NA,1908469191,49,412,5120,Gannot Hadar,http://gis.cbs.gov.il/Yeshuvim_allyears/start.aspx?stl=549
GAT RIMMON,"Gat Rimon, Israel",32.068105,34.881362,גת רימון,128,גת רימון,4,42,422,20,132,1,295,0.3,0.3,NA,1926,350,NA,1888266395,67,417,5130,Gat Rimmon,http://gis.cbs.gov.il/Yeshuvim_allyears/start.aspx?stl=128
GAT(QIBBUZ),"Kiryat Gat, Israel",31.611148,34.768459,גת (קיבוץ),340,גת (קיבוץ),6,61,611,35,NA,1,752,0.8,0.7,NA,1941,330,15,1805861511,137,632,3820,Gat(Qibbuz),http://gis.cbs.gov.il/Yeshuvim_allyears/start.aspx?stl=340
GAZIT,"Gazit, Israel",32.639307,35.446239,גזית,457,גזית,2,23,233,9,NA,1,674,0.7,0.6,NA,1948,330,15,2422272714,129,254,1420,Gazit,http://gis.cbs.gov.il/Yeshuvim_allyears/start.aspx?stl=457
GE'A,"Ge'a, Israel",31.628467,34.602678,גיאה,706,גיאה,6,61,614,36,NA,1,948,0.9,0.9,NA,1949,310,1,1624261519,54,633,3840,Ge'a,http://gis.cbs.gov.il/Yeshuvim_allyears/start.aspx?stl=706
GE'ALYA,"Ge'alya, Israel",31.885644,34.765351,גאליה,853,גאליה,4,44,442,27,143,1,984,1,1,NA,1948,310,1,1779264365,22,456,5230,Ge'alya,http://gis.cbs.gov.il/Yeshuvim_allyears/start.aspx?stl=853
GE'ULE TEMAN,"Geulei Teiman, Israel",32.391837,34.900989,גאולי תימן,872,גאולי תימן,4,41,411,16,141,1,362,0.3,0.3,NA,1947,310,2,1909769986,14,409,5120,Ge'ule Teman,http://gis.cbs.gov.il/Yeshuvim_allyears/start.aspx?stl=872
GE'ULIM,"Geulim, Israel",32.296487,34.943862,גאולים,379,גאולים,4,41,411,18,141,1,928,0.9,0.9,NA,1945,310,1,1950268938,56,412,5120,Ge'ulim,http://gis.cbs.gov.il/Yeshuvim_allyears/start.aspx?stl=379
GEFEN,"Gefen, Israel",31.740766,34.878563,גפן,39,גפן,1,11,112,26,NA,1,418,0.4,0.4,NA,1955,310,2,1885762761,159,151,7004,Gefen,http://gis.cbs.gov.il/Yeshuvim_allyears/start.aspx?stl=39
GELIL YAM,"Glil Yam, Israel",32.158797,34.831876,גליל ים,346,גליל ים,5,51,511,19,121,1,496,0.5,0.5,NA,1943,330,15,1842067381,44,401,2360,Gelil Yam,http://gis.cbs.gov.il/Yeshuvim_allyears/start.aspx?stl=346
GEROFIT,"Grofit, Israel",29.941617,35.064691,גרופית,1129,גרופית,6,62,625,53,NA,1,249,0.2,0.2,NA,1963,330,15,2059542802,118,608,3460,Gerofit,http://gis.cbs.gov.il/Yeshuvim_allyears/start.aspx?stl=1129
GESHER,"Gesher, Israel",32.621205,35.550376,גשר,305,גשר,2,22,221,7,NA,1,429,0.4,0.4,NA,1939,330,15,2519972518,-198,202,1430,Gesher,http://gis.cbs.gov.il/Yeshuvim_allyears/start.aspx?stl=305
GESHUR,Gshur,32.819941,35.715708,גשור,4022,גשור,2,29,294,71,NA,1,272,0.3,0.3,NA,1971,330,15,2674574724,347,219,1270,Geshur,http://gis.cbs.gov.il/Yeshuvim_allyears/start.aspx?stl=4022
GEVA,"Geva, Israel",32.56653000000001,35.37216,גבע,86,גבע,2,23,232,8,NA,1,631,0.6,0.6,NA,1921,330,15,2351971912,13,204,1420,Geva,http://gis.cbs.gov.il/Yeshuvim_allyears/start.aspx?stl=86
GEVA'OT BAR,"Giv'ot Bar, Israel",31.357209,34.755541,גבעות בר,1344,גבעות בר,6,62,623,41,341,1,896,0.9,0.9,NA,2004,370,19,1768358505,229,625,3485,Geva'ot Bar,http://gis.cbs.gov.il/Yeshuvim_allyears/start.aspx?stl=1344
GEVAR'AM,"Gvar'am, Israel",31.591461,34.612156,גברעם,342,גברעם,6,61,614,36,NA,1,444,0.4,0.4,NA,1942,330,15,1632461117,87,633,3840,Gevar'am,http://gis.cbs.gov.il/Yeshuvim_allyears/start.aspx?stl=342
GEVAT,"Gvat, Israel",32.67656,35.213151,גבת,133,גבת,2,23,234,9,NA,1,888,0.9,0.9,NA,1926,330,15,2202173114,93,254,1440,Gevat,http://gis.cbs.gov.il/Yeshuvim_allyears/start.aspx?stl=133
GEVIM,"Gevim, Israel",31.506273,34.598949,גבים,424,גבים,6,61,614,37,NA,1,573,0.6,0.6,NA,1947,330,15,1618560187,116,651,3840,Gevim,http://gis.cbs.gov.il/Yeshuvim_allyears/start.aspx?stl=424
GEVULOT,"Gvulot, Israel",31.211168,34.466199,גבולות,352,גבולות,6,62,622,38,NA,1,325,0.3,0.3,NA,1943,330,15,1490356905,131,651,3430,Gevulot,http://gis.cbs.gov.il/Yeshuvim_allyears/start.aspx?stl=352
GEZER,"Gezer, Israel",31.876349,34.92111,גזר,370,גזר,4,43,432,30,143,1,281,0.3,0.3,NA,1945,330,15,1925264268,122,426,5220,Gezer,http://gis.cbs.gov.il/Yeshuvim_allyears/start.aspx?stl=370
GIBBETON,"Gibton, Israel",31.888318,34.79906,גיבתון,196,גיבתון,4,44,441,28,143,1,337,0.3,0.3,NA,1933,350,NA,1811964406,42,456,5230,Gibbeton,http://gis.cbs.gov.il/Yeshuvim_allyears/start.aspx?stl=196
GID'ONA,"Gidona, Israel",32.549927,35.359202,גדעונה,442,גדעונה,2,23,232,8,NA,1,422,0.4,0.4,NA,1949,350,NA,2339371720,-9,204,1420,Gid'ona,http://gis.cbs.gov.il/Yeshuvim_allyears/start.aspx?stl=442
GILGAL,"Ness Tsiyona St 7, Tel Aviv-Yafo, 63904, Israel",32.0748327,34.7673029,גלגל,3606,גלגל,7,75,NA,75,NA,1,178,0.2,0.2,NA,1970,330,15,2425165628,-249,712,4164,Gilgal,http://gis.cbs.gov.il/Yeshuvim_allyears/start.aspx?stl=3606
GINNATON,"Ginaton, Israel",31.962801,34.913062,גינתון,863,גינתון,4,43,432,25,142,1,913,0.9,0.9,NA,1949,310,1,1919965224,57,424,5280,Ginnaton,http://gis.cbs.gov.il/Yeshuvim_allyears/start.aspx?stl=863
GINNEGAR,NA,NA,NA,גיניגר,92,גיניגר,2,23,234,9,NA,1,675,0.7,0.7,NA,1922,330,15,2244572993,107,254,1440,Ginnegar,http://gis.cbs.gov.il/Yeshuvim_allyears/start.aspx?stl=92
GINNOSAR,"Ginosar, Israel",32.848666,35.523152,גינוסר,262,גינוסר,2,22,221,6,NA,1,581,0.6,0.6,NA,1937,330,15,2493075035,-203,214,1240,Ginnosar,http://gis.cbs.gov.il/Yeshuvim_allyears/start.aspx?stl=262
GITTA,"בית אסיה, ויצמן‬ 4, תל אביב יפו, 6423904, Israel",32.078162,34.7890648,גיתה,1206,גיתה,2,24,243,52,NA,1,276,0.3,0.2,NA,1980,370,13,2236176356,430,255,1320,Gitta,http://gis.cbs.gov.il/Yeshuvim_allyears/start.aspx?stl=1206
GITTIT,"Gitit St, Tel Aviv-Yafo, Israel",32.0410495,34.7750714,גיתית,3613,גיתית,7,75,NA,75,NA,1,430,0.4,0.4,NA,1973,310,9,2373766773,309,712,4164,Gittit,http://gis.cbs.gov.il/Yeshuvim_allyears/start.aspx?stl=3613
GIV'AT HASHELOSHA,"Givat HaShlosha, Israel",32.09634,34.920628,גבעת השלושה,870,גבעת השלושה,4,42,422,20,142,1,785,0.8,0.8,NA,1925,330,15,1927366719,30,417,5130,Giv'at HaShelosha,http://gis.cbs.gov.il/Yeshuvim_allyears/start.aspx?stl=870
GIV'AT HAYYIM(ME'UHAD),"Givat Haim, Israel",32.392148,34.929447,גבעת חיים (מאוחד),173,גבעת חיים (מאוחד),4,41,411,16,141,1,994,1,1,NA,1932,330,15,1937069975,20,409,5120,Giv'at Hayyim(Me'uhad),http://gis.cbs.gov.il/Yeshuvim_allyears/start.aspx?stl=173
GIV'AT HEN,"Givat Hen, Israel",32.16758,34.875514,"גבעת ח""ן",207,"גבעת ח""ן",4,42,421,20,131,1,359,0.4,0.4,NA,1933,310,1,1883667500,61,417,5140,Giv'at Hen,http://gis.cbs.gov.il/Yeshuvim_allyears/start.aspx?stl=207
GIV'AT KOAH,"Giv'at Ko'ah, Israel",32.032091,34.938796,"גבעת כ""ח",802,"גבעת כ""ח",4,42,422,25,142,1,895,0.9,0.9,NA,1950,310,1,1940865982,69,424,5160,Giv'at Koah,http://gis.cbs.gov.il/Yeshuvim_allyears/start.aspx?stl=802
GIV'AT NILI,"Givat Nili, Israel",32.549043,35.041194,"גבעת ניל""י",360,"גבעת ניל""י",3,32,323,45,NA,1,724,0.7,0.7,NA,1953,310,9,2041471707,136,351,1450,Giv'at Nili,http://gis.cbs.gov.il/Yeshuvim_allyears/start.aspx?stl=360
GIV'AT OZ,"Givat Oz, Israel",32.555934,35.198004,גבעת עוז,703,גבעת עוז,2,23,234,13,NA,1,477,0.5,0.5,NA,1949,330,15,2189071785,113,254,1470,Giv'at Oz,http://gis.cbs.gov.il/Yeshuvim_allyears/start.aspx?stl=703
GIV'AT SHAPPIRA,NA,NA,NA,גבעת שפירא,1077,גבעת שפירא,4,41,411,16,141,1,414,0.4,0.4,NA,1958,310,10,1886069600,37,409,5120,Giv'at Shappira,http://gis.cbs.gov.il/Yeshuvim_allyears/start.aspx?stl=1077
GIV'AT SHEMESH,"Givat Shemesh, Israel",31.774189,34.95055,גבעת שמש,566,גבעת שמש,1,11,112,26,444,1,88,0.1,0.1,NA,1954,340,NA,1955163138,256,151,7004,Giv'at Shemesh,http://gis.cbs.gov.il/Yeshuvim_allyears/start.aspx?stl=566
GIV'AT YESHA'YAHU,"Givat Yeshayahu, Israel",31.67168,34.943738,גבעת ישעיהו,919,גבעת ישעיהו,1,11,112,26,444,1,822,0.8,0.8,NA,1958,310,6,1948961988,299,151,7004,Giv'at Yesha'yahu,http://gis.cbs.gov.il/Yeshuvim_allyears/start.aspx?stl=919
GIV'AT YO'AV,Giv'at Yo'av,32.801217,35.680911,גבעת יואב,4021,גבעת יואב,2,29,294,71,NA,1,700,0.7,0.7,NA,1968,310,1,2641674503,312,219,1270,Giv'at Yo'av,http://gis.cbs.gov.il/Yeshuvim_allyears/start.aspx?stl=4021
GIV'ATI,"Giv'ati, Israel",31.733138,34.679478,גבעתי,793,גבעתי,6,61,611,33,143,1,960,1,0.9,NA,1950,310,1,1698062683,37,616,3830,Giv'ati,http://gis.cbs.gov.il/Yeshuvim_allyears/start.aspx?stl=793
GIV'OLIM,"Givolim, Israel",31.397604,34.593821,גבעולים,2014,גבעולים,6,62,621,39,NA,1,338,0.3,0.3,NA,1952,310,2,1611658959,121,651,3482,Giv'olim,http://gis.cbs.gov.il/Yeshuvim_allyears/start.aspx?stl=2014
GIZO,"Gizo, Israel",31.805585,34.939653,גיזו,1043,גיזו,1,11,112,26,NA,1,199,0.2,0.2,NA,1968,350,NA,1943163471,196,151,7004,Gizo,http://gis.cbs.gov.il/Yeshuvim_allyears/start.aspx?stl=1043
GONEN,"Gonen, Israel",33.1240353,35.6461519,גונן,852,גונן,2,21,211,1,NA,1,340,0.3,0.3,NA,1951,330,15,2607478109,90,253,1210,Gonen,http://gis.cbs.gov.il/Yeshuvim_allyears/start.aspx?stl=852
GOREN,"Goren, Israel",33.055566,35.233619,גורן,755,גורן,2,24,244,52,NA,1,438,0.4,0.4,NA,1950,310,1,2224377349,368,255,1350,Goren,http://gis.cbs.gov.il/Yeshuvim_allyears/start.aspx?stl=755
GORNOT HAGALIL,"Gornot HaGalil, Israel",33.059286,35.24967,גורנות הגליל,1219,גורנות הגליל,2,24,244,52,NA,1,174,0.2,0.2,NA,1980,350,NA,2236377386,394,255,1350,Gornot HaGalil,http://gis.cbs.gov.il/Yeshuvim_allyears/start.aspx?stl=1219
HABONIM,"HaBonim, Israel",32.636586,34.932704,הבונים,675,הבונים,3,32,321,15,243,1,363,0.4,0.4,NA,1949,320,15,1939572700,17,303,1181,HaBonim,http://gis.cbs.gov.il/Yeshuvim_allyears/start.aspx?stl=675
HAD-NES,Had Nes,32.927514,35.641408,חד-נס,4026,חד-נס,2,29,293,71,NA,1,852,0.9,0.8,NA,1989,370,9,2604175924,-7,219,1270,Had-Nes,http://gis.cbs.gov.il/Yeshuvim_allyears/start.aspx?stl=4026
HADAR AM,"Hadar Am, Israel",32.349653000000004,34.898945,הדר עם,191,הדר עם,4,41,411,16,141,1,635,0.6,0.6,NA,1933,310,10,1909169504,26,409,5120,Hadar Am,http://gis.cbs.gov.il/Yeshuvim_allyears/start.aspx?stl=191
HADID,"Hadid, Israel",31.969429,34.932156,חדיד,618,חדיד,4,43,432,25,142,1,876,0.9,0.9,NA,1950,310,2,1936965289,68,424,5160,Hadid,http://gis.cbs.gov.il/Yeshuvim_allyears/start.aspx?stl=618
HAFEZ HAYYIM,"Hafetz Haim, Israel",31.789319,34.799739,חפץ חיים,363,חפץ חיים,4,44,441,31,143,1,506,0.5,0.5,NA,1944,330,8,1811663302,76,456,5230,Hafez Hayyim,http://gis.cbs.gov.il/Yeshuvim_allyears/start.aspx?stl=363
HAGGAY,Beit Hagai,31.49253,35.07953699999999,חגי,3764,חגי,7,77,NA,78,NA,1,573,0.6,0.6,NA,1984,370,11,2076260015,854,715,4352,Haggay,http://gis.cbs.gov.il/Yeshuvim_allyears/start.aspx?stl=3764
HAGOSHERIM,"HaGoshrim, Israel",33.221485,35.623028,הגושרים,356,הגושרים,2,21,211,1,NA,1,749,0.7,0.7,NA,1948,330,15,2585379177,100,253,1210,HaGosherim,http://gis.cbs.gov.il/Yeshuvim_allyears/start.aspx?stl=356
HAHOTERIM,"HaHotrim, Israel",32.752311,34.957545,החותרים,434,החותרים,3,32,321,15,223,1,750,0.8,0.7,NA,1948,330,15,1962573976,15,303,1182,HaHoterim,http://gis.cbs.gov.il/Yeshuvim_allyears/start.aspx?stl=434
HALUZ,"Haluts, Israel",32.951271,35.311103,חלוץ,1272,חלוץ,2,24,243,56,NA,1,487,0.5,0.5,NA,1985,370,13,2295276173,735,205,1310,Haluz,http://gis.cbs.gov.il/Yeshuvim_allyears/start.aspx?stl=1272
HAMA'PIL,"HaMa'apil, Israel",32.378035,34.983146,המעפיל,377,המעפיל,4,41,412,16,141,1,802,0.8,0.8,NA,1945,330,15,1985969825,33,409,5120,HaMa'pil,http://gis.cbs.gov.il/Yeshuvim_allyears/start.aspx?stl=377
HAMADYA,"Hamadia, Israel",32.519773,35.520568,חמדיה,343,חמדיה,2,23,231,7,NA,1,380,0.4,0.4,NA,1942,330,15,2490971406,-169,202,1430,Hamadya,http://gis.cbs.gov.il/Yeshuvim_allyears/start.aspx?stl=343
HAMRA,Hamra,32.199688,35.43735,חמרה,3609,חמרה,7,75,NA,75,NA,1,124,0.1,0.1,NA,1971,310,10,2412667839,-49,712,4164,Hamra,http://gis.cbs.gov.il/Yeshuvim_allyears/start.aspx?stl=3609
HANITA,"Hanita, Israel",33.087634,35.17343,חניתה,280,חניתה,2,24,244,4,NA,1,739,0.7,0.7,NA,1938,330,15,2166577698,342,201,1350,Hanita,http://gis.cbs.gov.il/Yeshuvim_allyears/start.aspx?stl=280
HANNATON,"Hanaton, Israel",32.783051,35.245063,חנתון,1257,חנתון,2,23,237,9,241,1,860,0.9,0.9,NA,1984,330,15,2232174321,188,254,1340,Hannaton,http://gis.cbs.gov.il/Yeshuvim_allyears/start.aspx?stl=1257
HANNI'EL,"Haniel, Israel",32.332803,34.947693,חניאל,807,חניאל,4,41,411,16,141,1,940,0.9,0.9,NA,1950,310,1,1954169328,31,409,5120,Hanni'el,http://gis.cbs.gov.il/Yeshuvim_allyears/start.aspx?stl=807
HAOGEN,"HaOgen, Israel",32.360437,34.923338,העוגן,423,העוגן,4,41,411,16,141,1,870,0.9,0.9,NA,1947,330,15,1930669651,15,409,5120,HaOgen,http://gis.cbs.gov.il/Yeshuvim_allyears/start.aspx?stl=423
HAON,HaOn,32.726748,35.622665,האון,702,האון,2,22,221,6,NA,1,180,0.2,0.2,NA,1949,330,15,2585973681,-188,214,1240,HaOn,http://gis.cbs.gov.il/Yeshuvim_allyears/start.aspx?stl=702
HAR'EL,"Harel, Israel",31.808975,34.947959,הראל,464,הראל,1,11,112,26,444,1,259,0.3,0.2,NA,1948,330,15,1953163517,200,151,7004,Har'el,http://gis.cbs.gov.il/Yeshuvim_allyears/start.aspx?stl=464
HAR AMASA,"Har Amasa, Israel",31.342717,35.101599,הר עמשא,1261,הר עמשא,6,62,623,51,NA,1,151,0.1,0.1,NA,1983,330,NA,2097058352,824,656,3481,Har Amasa,http://gis.cbs.gov.il/Yeshuvim_allyears/start.aspx?stl=1261
HARARIT,"Hararit, Israel",32.845696,35.369257,הררית,1203,הררית,2,24,241,56,NA,1,435,0.4,0.4,NA,1980,370,7,2346875012,479,205,1360,Hararit,http://gis.cbs.gov.il/Yeshuvim_allyears/start.aspx?stl=1203
HARASHIM,"Harashim, Israel",32.957737,35.328217,חרשים,1209,חרשים,2,24,243,56,NA,1,316,0.3,0.3,NA,1980,370,19,2310076241,814,205,1320,Harashim,http://gis.cbs.gov.il/Yeshuvim_allyears/start.aspx?stl=1209
HARUZIM,"Harutzim, Israel",32.22771,34.86477199999999,חרוצים,1024,חרוצים,4,41,411,19,141,1,902,0.9,0.9,NA,1951,350,NA,1874468161,45,401,5120,Haruzim,http://gis.cbs.gov.il/Yeshuvim_allyears/start.aspx?stl=1024
HASOLELIM,"HaSolelim, Israel",32.751802,35.238022,הסוללים,677,הסוללים,2,23,237,9,242,1,931,0.9,0.9,NA,1949,330,6,2225673955,171,254,1410,HaSolelim,http://gis.cbs.gov.il/Yeshuvim_allyears/start.aspx?stl=677
HAVAZZELET HASHARON,"Havatzelet HaSharon, Israel",32.3604,34.861819,חבצלת השרון,235,חבצלת השרון,4,41,411,16,141,1,651,0.6,0.6,NA,1935,310,10,1872969635,22,409,5110,Havazzelet HaSharon,http://gis.cbs.gov.il/Yeshuvim_allyears/start.aspx?stl=235
HAYOGEV,"HaYogev, Israel",32.612753,35.207483,היוגב,684,היוגב,2,23,234,9,NA,1,674,0.7,0.7,NA,1949,310,1,2194972416,86,254,1420,HaYogev,http://gis.cbs.gov.il/Yeshuvim_allyears/start.aspx?stl=684
HAZERIM,"Hatzerim, Israel",31.240603,34.717427,חצרים,397,חצרים,6,62,623,41,344,1,779,0.8,0.8,NA,1946,330,15,1726957221,240,625,3440,Hazerim,http://gis.cbs.gov.il/Yeshuvim_allyears/start.aspx?stl=397
HAZEVA,"Hazeva, Israel",30.767942,35.278498,חצבה,13,חצבה,6,62,625,54,NA,1,573,0.6,0.5,NA,1965,310,1,2266751972,-163,657,3450,Hazeva,http://gis.cbs.gov.il/Yeshuvim_allyears/start.aspx?stl=13
HAZON,"Hazon, Israel",32.90658,35.395291,חזון,1047,חזון,2,22,222,2,NA,1,329,0.3,0.3,NA,1969,310,2,2372775686,444,209,1310,Hazon,http://gis.cbs.gov.il/Yeshuvim_allyears/start.aspx?stl=1047
HAZOR-ASHDOD,"Hatsor Ashdod, Israel",31.772744,34.719366,חצור-אשדוד,406,חצור-אשדוד,6,61,611,33,143,1,582,0.6,0.6,NA,1937,330,15,1735963120,45,616,3830,Hazor-Ashdod,http://gis.cbs.gov.il/Yeshuvim_allyears/start.aspx?stl=406
HAZORE'IM,"HaZor'im, Israel",32.74814,35.499922,הזורעים,307,הזורעים,2,22,222,3,NA,1,994,1,1,NA,1939,310,2,2473873908,-61,206,1240,HaZore'im,http://gis.cbs.gov.il/Yeshuvim_allyears/start.aspx?stl=307
HAZOREA,"HaZore'a, Israel",32.644516,35.11918,הזורע,250,הזורע,2,23,235,13,NA,1,855,0.9,0.8,NA,1936,330,15,2114872773,64,254,1420,HaZorea,http://gis.cbs.gov.il/Yeshuvim_allyears/start.aspx?stl=250
HEFZI-BAH,"Heftziba, Israel",32.518729,35.426247,חפצי-בה,90,חפצי-בה,2,23,232,8,NA,1,648,0.6,0.6,NA,1922,330,15,2402471384,-76,204,1430,Hefzi-Bah,http://gis.cbs.gov.il/Yeshuvim_allyears/start.aspx?stl=90
HELEZ,"Heletz, Israel",31.57794,34.658391,חלץ,820,חלץ,6,61,614,36,NA,1,450,0.4,0.4,NA,1950,310,1,1676360965,80,633,3840,Helez,http://gis.cbs.gov.il/Yeshuvim_allyears/start.aspx?stl=820
HEMDAT,Hemdat,32.252028,35.526843,חמדת,3646,חמדת,7,75,NA,75,NA,1,230,0.2,0.2,NA,1980,370,11,2499468438,146,712,4164,Hemdat,http://gis.cbs.gov.il/Yeshuvim_allyears/start.aspx?stl=3646
HEREV LE'ET,"Herev Le'et, Israel",32.403526,34.917146,חרב לאת,422,חרב לאת,4,41,411,16,141,1,838,0.8,0.8,NA,1947,310,10,1924170092,28,409,5120,Herev Le'et,http://gis.cbs.gov.il/Yeshuvim_allyears/start.aspx?stl=422
HERMESH,Hermesh,32.423726,35.118993,חרמש,3717,חרמש,7,71,NA,72,NA,1,223,0.2,0.2,NA,1982,370,9,2114270327,238,710,4164,Hermesh,http://gis.cbs.gov.il/Yeshuvim_allyears/start.aspx?stl=3717
HEVER,"Merkaz Hever, Israel",32.549097,35.264911,חבר,1110,חבר,2,23,234,8,NA,1,473,0.5,0.4,NA,1958,350,NA,2250871708,71,204,1420,Hever,http://gis.cbs.gov.il/Yeshuvim_allyears/start.aspx?stl=1110
HIBBAT ZIYYON,"Hibat Tzion, Israel",32.397995,34.911931,חיבת ציון,219,חיבת ציון,4,41,411,16,141,1,674,0.7,0.7,NA,1933,310,7,1919970045,30,409,5120,Hibbat Ziyyon,http://gis.cbs.gov.il/Yeshuvim_allyears/start.aspx?stl=219
HILLA,"Hila, Israel",33.036175,35.244582,הילה,1208,הילה,2,24,243,52,NA,1,584,0.6,0.6,NA,1980,370,19,2231777125,490,255,1320,Hilla,http://gis.cbs.gov.il/Yeshuvim_allyears/start.aspx?stl=1208
HODAYOT,"Hodayot, Israel",32.788611,35.435,הודיות,1322,הודיות,2,22,222,3,NA,1,356,0.4,0.3,NA,1959,340,NA,2410774379,284,206,1240,Hodayot,http://gis.cbs.gov.il/Yeshuvim_allyears/start.aspx?stl=1322
HODIYYA,Israel,31.683664,34.65311,הודייה,726,הודייה,6,61,614,36,NA,1,487,0.5,0.5,NA,1949,310,1,1660062041,54,633,3830,Hodiyya,http://gis.cbs.gov.il/Yeshuvim_allyears/start.aspx?stl=726
HOFIT,"Hofit, Israel",32.386082,34.874078,חופית,115,חופית,4,41,411,16,141,1,739,0.7,0.7,NA,1955,350,NA,1883669905,15,409,5120,Hofit,http://gis.cbs.gov.il/Yeshuvim_allyears/start.aspx?stl=115
HOGLA,"Hogla, Israel",32.38907,34.924252,חגלה,205,חגלה,4,41,411,16,141,1,861,0.9,0.9,NA,1933,310,1,1932869924,18,409,5120,Hogla,http://gis.cbs.gov.il/Yeshuvim_allyears/start.aspx?stl=205
HOLIT,"Holit, Israel",31.230563,34.32734,חולית,1239,חולית,6,62,622,38,NA,1,150,0.1,0.1,NA,1980,330,15,1357357134,76,651,3430,Holit,http://gis.cbs.gov.il/Yeshuvim_allyears/start.aspx?stl=1239
HORESHIM,"Horshim, Israel",32.137875,34.97102,חורשים,355,חורשים,4,42,421,20,142,1,313,0.3,0.3,NA,1955,330,15,1974467160,81,417,5150,Horeshim,http://gis.cbs.gov.il/Yeshuvim_allyears/start.aspx?stl=355
HULATA,"Hulata, Israel",33.052851,35.609244,חולתה,253,חולתה,2,21,211,1,NA,1,625,0.6,0.6,NA,1937,330,15,2573277301,80,253,1220,Hulata,http://gis.cbs.gov.il/Yeshuvim_allyears/start.aspx?stl=253
HULDA,"Hulda, Israel",31.83215,34.881523,חולדה,160,חולדה,4,43,432,30,143,1,962,1,1,NA,1930,330,15,1889863766,119,426,5230,Hulda,http://gis.cbs.gov.il/Yeshuvim_allyears/start.aspx?stl=160
HUQOQ,"Hukok, Israel",32.878631,35.496654,חוקוק,374,חוקוק,2,22,221,6,NA,1,569,0.6,0.5,NA,1945,330,15,2466875395,3,214,1240,Huqoq,http://gis.cbs.gov.il/Yeshuvim_allyears/start.aspx?stl=374
HUSSNIYYA,"Hussniyya, Israel",32.900573,35.322507,חוסנייה,1332,חוסנייה,2,24,242,56,NA,2,664,NA,NA,0.7,NA,450,NA,2302275622,297,205,1360,Hussniyya,http://gis.cbs.gov.il/Yeshuvim_allyears/start.aspx?stl=1332
IBBIM,"Ibim, Israel",31.533597,34.609697,איבים,338,איבים,6,61,614,37,NA,1,135,0.1,0.1,NA,1991,340,NA,1629760477,84,651,3840,Ibbim,http://gis.cbs.gov.il/Yeshuvim_allyears/start.aspx?stl=338
IDDAN,"Idan, Israel",30.806291,35.299946,עידן,1175,עידן,6,62,625,54,NA,1,376,0.4,0.4,NA,1980,310,1,2297452377,-203,657,3450,Iddan,http://gis.cbs.gov.il/Yeshuvim_allyears/start.aspx?stl=1175
ILANIYYA,"Ilaniya, Israel",32.753908,35.408188,אילנייה,49,אילנייה,2,22,222,3,NA,1,478,0.5,0.5,NA,1902,310,10,2384773998,239,206,1240,Ilaniyya,http://gis.cbs.gov.il/Yeshuvim_allyears/start.aspx?stl=49
IRUS,"Irus, Israel",31.928595,34.776605000000004,אירוס,1336,אירוס,4,44,442,27,143,1,370,0.4,0.4,NA,2013,370,NA,1789664843,46,456,5210,Irus,http://gis.cbs.gov.il/Yeshuvim_allyears/start.aspx?stl=1336
KADDITA,"Kadita, Israel",33.005954,35.468309,כדיתה,1338,כדיתה,2,21,212,2,NA,1,163,0.2,0.2,NA,2009,370,10,2437076779,764,209,1230,Kaddita,http://gis.cbs.gov.il/Yeshuvim_allyears/start.aspx?stl=1338
KADOORIE,"Kaduri Regional Center, Israel",32.70624,35.406304,כדורי,371,כדורי,2,22,222,3,NA,1,229,0.2,0.1,NA,1931,340,NA,2382773464,140,206,1240,Kadoorie,http://gis.cbs.gov.il/Yeshuvim_allyears/start.aspx?stl=371
KAHAL,"Kahal, Israel",32.89046500000001,35.511572,כחל,1210,כחל,2,21,212,55,NA,1,383,0.4,0.4,NA,1980,310,1,2480675516,103,253,1220,Kahal,http://gis.cbs.gov.il/Yeshuvim_allyears/start.aspx?stl=1210
KALLANIT,"Kalanit, Israel",32.875328,35.453972,כלנית,1229,כלנית,2,22,222,2,NA,1,217,0.2,0.2,NA,1981,310,2,2429675339,16,209,1240,Kallanit,http://gis.cbs.gov.il/Yeshuvim_allyears/start.aspx?stl=1229
KANAF,Kanaf,32.870412,35.697897,כנף,4028,כנף,2,29,293,71,NA,1,450,0.5,0.4,NA,1991,310,1,2658275286,291,219,1270,Kanaf,http://gis.cbs.gov.il/Yeshuvim_allyears/start.aspx?stl=4028
KANNOT,Israel,31.804226,34.753433,כנות,2006,כנות,6,61,611,33,143,1,435,0.4,0.4,NA,1952,340,NA,1766263444,69,616,3830,Kannot,http://gis.cbs.gov.il/Yeshuvim_allyears/start.aspx?stl=2006
KARKOM,"Karkom, Israel",32.928271,35.606331,כרכום,1285,כרכום,2,22,221,55,NA,1,556,0.6,0.6,NA,1988,370,13,2571975949,96,253,1220,Karkom,http://gis.cbs.gov.il/Yeshuvim_allyears/start.aspx?stl=1285
KARMEL,Mount Carmel,32.7427316,35.0483915,כרמל,3656,כרמל,7,77,NA,78,NA,1,401,0.4,0.4,NA,1981,320,11,2175759336,730,715,4352,Karmel,http://gis.cbs.gov.il/Yeshuvim_allyears/start.aspx?stl=3656
KARMIYYA,"Karmia, Israel",31.60269499999999,34.540413,כרמייה,768,כרמייה,6,61,614,36,NA,1,633,0.6,0.6,NA,1950,330,15,1565861272,29,633,3840,Karmiyya,http://gis.cbs.gov.il/Yeshuvim_allyears/start.aspx?stl=768
KEFAR AHIM,"Kfar Ahim, Israel",31.745864,34.755932,כפר אחים,690,כפר אחים,6,61,611,33,143,1,842,0.8,0.8,NA,1949,310,1,1770562808,54,616,3830,Kefar Ahim,http://gis.cbs.gov.il/Yeshuvim_allyears/start.aspx?stl=690
KEFAR AVIV,NA,NA,NA,כפר אביב,857,כפר אביב,4,44,441,32,143,1,824,0.8,0.8,NA,1951,310,10,1736963771,45,456,5230,Kefar Aviv,http://gis.cbs.gov.il/Yeshuvim_allyears/start.aspx?stl=857
KEFAR AVODA,"Kfar Avoda, Israel",32.255731,34.93966899999999,כפר עבודה,875,כפר עבודה,4,41,411,18,141,1,246,0.2,0.2,NA,1942,340,NA,1946168478,70,412,5140,Kefar Avoda,http://gis.cbs.gov.il/Yeshuvim_allyears/start.aspx?stl=875
KEFAR AZZA,"Kfar Aza, Israel",31.483416,34.532291,כפר עזה,845,כפר עזה,6,61,614,37,NA,1,695,0.7,0.7,NA,1951,330,15,1555559925,89,651,3840,Kefar Azza,http://gis.cbs.gov.il/Yeshuvim_allyears/start.aspx?stl=845
KEFAR BARUKH,"Kfar Baruch, Israel",32.646048,35.193078,כפר ברוך,132,כפר ברוך,2,23,234,9,NA,1,546,0.5,0.5,NA,1926,310,1,2181872798,56,254,1440,Kefar Barukh,http://gis.cbs.gov.il/Yeshuvim_allyears/start.aspx?stl=132
KEFAR BIALIK,"Kfar Bialik, Israel",32.821376,35.087749,כפר ביאליק,220,כפר ביאליק,3,31,311,12,222,1,839,0.8,0.8,NA,1934,310,NA,2084074740,10,301,1160,Kefar Bialik,http://gis.cbs.gov.il/Yeshuvim_allyears/start.aspx?stl=220
KEFAR BIN NUN,"Kfar Bin Nun, Israel",31.861679,34.947191,כפר בן נון,2010,כפר בן נון,4,43,432,30,143,1,681,0.7,0.7,NA,1952,310,10,1951064104,148,426,5220,Kefar Bin Nun,http://gis.cbs.gov.il/Yeshuvim_allyears/start.aspx?stl=2010
KEFAR BLUM,"Kfar Blum, Israel",33.172527,35.607938,כפר בלום,357,כפר בלום,2,21,211,1,NA,1,701,0.7,0.7,NA,1943,330,15,2572678641,76,253,1210,Kefar Blum,http://gis.cbs.gov.il/Yeshuvim_allyears/start.aspx?stl=357
KEFAR DANIYYEL,"Kfar Daniel, Israel",31.933521,34.932306,כפר דניאל,707,כפר דניאל,4,43,431,25,142,1,727,0.7,0.7,NA,1949,320,15,1937364901,96,424,5280,Kefar Daniyyel,http://gis.cbs.gov.il/Yeshuvim_allyears/start.aspx?stl=707
KEFAR GALLIM,"Kfar Galim, Israel",32.76615,34.959511,כפר גלים,427,כפר גלים,3,31,311,15,223,1,323,0.3,0.2,NA,1952,340,NA,1964574128,18,399,1182,Kefar Gallim,http://gis.cbs.gov.il/Yeshuvim_allyears/start.aspx?stl=427
KEFAR GID'ON,"Gid'on St, Kefar Sava, Israel",32.192245,34.937496,כפר גדעון,106,כפר גדעון,2,23,234,9,NA,1,354,0.4,0.4,NA,1923,310,19,2276072774,90,254,1420,Kefar Gid'on,http://gis.cbs.gov.il/Yeshuvim_allyears/start.aspx?stl=106
KEFAR GIL'ADI,"Kfar Giladi, Israel",33.242078,35.574142,כפר גלעדי,76,כפר גלעדי,2,21,211,1,NA,1,653,0.7,0.6,NA,1916,330,15,2539679416,313,253,1210,Kefar Gil'adi,http://gis.cbs.gov.il/Yeshuvim_allyears/start.aspx?stl=76
KEFAR GLIKSON,"Kfar Glikson, Israel",32.505824,35.00354,כפר גליקסון,310,כפר גליקסון,3,32,324,14,NA,1,277,0.3,0.3,NA,1939,330,6,2006571239,62,351,1181,Kefar Glikson,http://gis.cbs.gov.il/Yeshuvim_allyears/start.aspx?stl=310
KEFAR HAHORESH,"Kfar HaHoresh, Israel",32.701549,35.272956,כפר החורש,192,כפר החורש,2,23,237,9,NA,1,638,0.6,0.6,NA,1933,330,15,2258773405,402,254,1440,Kefar HaHoresh,http://gis.cbs.gov.il/Yeshuvim_allyears/start.aspx?stl=192
KEFAR HAMAKKABBI,"Kfar HaMaccabi, Israel",32.791804,35.114793,כפר המכבי,254,כפר המכבי,3,31,311,12,222,1,364,0.4,0.4,NA,1936,330,15,2111874393,28,301,1160,Kefar HaMakkabbi,http://gis.cbs.gov.il/Yeshuvim_allyears/start.aspx?stl=254
KEFAR HANANYA,"Kfar Hananya, Israel",32.915993,35.423785,כפר חנניה,1297,כפר חנניה,2,21,212,2,NA,1,721,0.7,0.7,NA,1990,370,2,2399275781,326,209,1310,Kefar Hananya,http://gis.cbs.gov.il/Yeshuvim_allyears/start.aspx?stl=1297
KEFAR HANASI,"Kfar HaNassi, Israel",32.97466,35.602308,כפר הנשיא,443,כפר הנשיא,2,21,213,1,NA,1,861,0.9,0.8,NA,1948,330,15,2567576448,265,253,1220,Kefar HaNasi,http://gis.cbs.gov.il/Yeshuvim_allyears/start.aspx?stl=443
KEFAR HANO'AR HADATI,"Kfar HaNoar HaDati, Israel",32.742897,35.09615,כפר הנוער הדתי,890,כפר הנוער הדתי,3,31,311,12,222,1,232,0.2,0.2,NA,1937,340,NA,2094973872,45,301,1160,Kefar HaNo'ar Hadati,http://gis.cbs.gov.il/Yeshuvim_allyears/start.aspx?stl=890
KEFAR HARIF,"Kfar HaRif, Israel",31.747029,34.790928,"כפר הרי""ף",888,"כפר הרי""ף",6,61,611,35,NA,1,860,0.9,0.8,NA,1956,310,10,1804462818,70,632,3830,Kefar Harif,http://gis.cbs.gov.il/Yeshuvim_allyears/start.aspx?stl=888
KEFAR HARUV,Kfar Haruv,32.762357,35.66418,כפר חרוב,4004,כפר חרוב,2,29,294,71,NA,1,387,0.4,0.4,NA,1974,330,15,2624074092,311,219,1270,Kefar Haruv,http://gis.cbs.gov.il/Yeshuvim_allyears/start.aspx?stl=4004
KEFAR HASIDIM ALEF,"Kfar Hasidim, Israel",32.752262,35.094212,כפר חסידים א',112,כפר חסידים א',3,31,311,12,222,1,839,0.8,0.8,NA,1924,310,19,2089773955,14,301,1160,Kefar Hasidim Alef,http://gis.cbs.gov.il/Yeshuvim_allyears/start.aspx?stl=112
KEFAR HASIDIM BET,"Kfar Hasidim Bet, Israel",32.750515,35.08828099999999,כפר חסידים ב',889,כפר חסידים ב',3,31,311,12,222,1,251,0.3,0.2,NA,1950,350,NA,2084973979,17,301,1160,Kefar Hasidim Bet,http://gis.cbs.gov.il/Yeshuvim_allyears/start.aspx?stl=889
KEFAR HAYYIM,"Kfar Haim, Israel",32.353857,34.90070900000001,כפר חיים,193,כפר חיים,4,41,411,16,141,1,603,0.6,0.6,NA,1933,310,1,1907569582,13,409,5120,Kefar Hayyim,http://gis.cbs.gov.il/Yeshuvim_allyears/start.aspx?stl=193
KEFAR HITTIM,"Kfar Hittim, Israel",32.799998,35.50328,כפר חיטים,255,כפר חיטים,2,22,222,3,NA,1,638,0.6,0.6,NA,1936,320,1,2474174517,31,206,1240,Kefar Hittim,http://gis.cbs.gov.il/Yeshuvim_allyears/start.aspx?stl=255
KEFAR HOSHEN,"Kfar Hoshen, Israel",33.013123,35.440171,כפר חושן,609,כפר חושן,2,21,212,2,NA,1,722,0.7,0.7,NA,1949,310,1,2414876857,736,209,1230,Kefar Hoshen,http://gis.cbs.gov.il/Yeshuvim_allyears/start.aspx?stl=609
KEFAR KISCH,"Kfar Kisch, Israel",32.666087,35.44895,כפר קיש,388,כפר קיש,2,22,222,3,NA,1,538,0.5,0.5,NA,1946,310,1,2424073029,86,206,1420,Kefar Kisch,http://gis.cbs.gov.il/Yeshuvim_allyears/start.aspx?stl=388
KEFAR MALAL,"Kfar Malal, Israel",32.167567,34.894744,"כפר מל""ל",98,"כפר מל""ל",4,42,421,20,131,1,312,0.3,0.3,NA,1922,310,1,1901867499,63,417,5140,Kefar Malal,http://gis.cbs.gov.il/Yeshuvim_allyears/start.aspx?stl=98
KEFAR MASARYK,"Kfar Masaryk, Israel",32.891218,35.098414,כפר מסריק,297,כפר מסריק,2,24,246,4,241,1,818,0.8,0.8,NA,1938,330,15,2097075506,4,201,1330,Kefar Masaryk,http://gis.cbs.gov.il/Yeshuvim_allyears/start.aspx?stl=297
KEFAR MAYMON,"Kfar Maimon, Israel",31.431401,34.53718,כפר מימון,1095,כפר מימון,6,62,621,39,NA,1,324,0.3,0.3,NA,1959,310,2,1558359360,99,651,3482,Kefar Maymon,http://gis.cbs.gov.il/Yeshuvim_allyears/start.aspx?stl=1095
KEFAR MONASH,"Kfar Monash, Israel",32.345607,34.916426,כפר מונש,387,כפר מונש,4,41,411,16,141,1,937,0.9,0.9,NA,1946,310,1,1923169488,17,409,5120,Kefar Monash,http://gis.cbs.gov.il/Yeshuvim_allyears/start.aspx?stl=387
KEFAR MORDEKHAY,"Kfar Mordechai, Israel",31.831504,34.756643,כפר מרדכי,764,כפר מרדכי,4,44,441,32,143,1,662,0.7,0.7,NA,1950,310,10,1769463769,41,456,5230,Kefar Mordekhay,http://gis.cbs.gov.il/Yeshuvim_allyears/start.aspx?stl=764
KEFAR ROZENWALD(ZARIT),"Zar'it, Israel",33.09898500000001,35.288522,כפר רוזנואלד (זרעית),1130,כפר רוזנואלד (זרעית),2,24,244,52,NA,1,256,0.3,0.3,NA,1967,310,1,2272977831,618,255,1350,Kefar Rozenwald(Zarit),http://gis.cbs.gov.il/Yeshuvim_allyears/start.aspx?stl=1130
KEFAR RUPPIN,"Kfar Ruppin, Israel",32.457549,35.555673,כפר רופין,295,כפר רופין,2,23,231,7,NA,1,441,0.4,0.4,NA,1938,330,15,2525870708,-247,202,1430,Kefar Ruppin,http://gis.cbs.gov.il/Yeshuvim_allyears/start.aspx?stl=295
KEFAR RUT,Kfar Rut,31.910378,35.035309,כפר רות,1166,כפר רות,4,43,431,25,142,1,217,0.2,0.2,NA,1977,310,1,2030464639,286,424,5290,Kefar Rut,http://gis.cbs.gov.il/Yeshuvim_allyears/start.aspx?stl=1166
KEFAR SHAMMAY,"Kfar Shamai, Israel",32.955698,35.457916,כפר שמאי,605,כפר שמאי,2,21,212,2,NA,1,493,0.5,0.5,NA,1949,310,2,2430876244,634,209,1230,Kefar Shammay,http://gis.cbs.gov.il/Yeshuvim_allyears/start.aspx?stl=605
KEFAR SHEMU'EL,"Kfar Shmuel, Israel",31.888259,34.934819,כפר שמואל,743,כפר שמואל,4,43,432,30,143,1,841,0.8,0.8,NA,1950,310,6,1937164417,107,426,5220,Kefar Shemu'el,http://gis.cbs.gov.il/Yeshuvim_allyears/start.aspx?stl=743
KEFAR SILVER,"Kfar Silver, Israel",31.675669,34.612311,כפר סילבר,107,כפר סילבר,6,61,614,36,NA,1,278,0.3,0.2,NA,1957,340,NA,1632562022,55,633,3830,Kefar Silver,http://gis.cbs.gov.il/Yeshuvim_allyears/start.aspx?stl=107
KEFAR SZOLD,"Kfar Szold, Israel",33.196035,35.657993,כפר סאלד,345,כפר סאלד,2,21,211,1,NA,1,600,0.6,0.6,NA,1942,330,15,2617578900,122,253,1210,Kefar Szold,http://gis.cbs.gov.il/Yeshuvim_allyears/start.aspx?stl=345
KEFAR TRUMAN,"Kfar Truman, Israel",31.980493,34.927696,כפר טרומן,673,כפר טרומן,4,43,432,25,142,1,865,0.9,0.9,NA,1949,310,1,1929565416,56,424,5160,Kefar Truman,http://gis.cbs.gov.il/Yeshuvim_allyears/start.aspx?stl=673
KEFAR URIYYA,"Kfar Uria, Israel",31.793399,34.944757,כפר אוריה,364,כפר אוריה,1,11,112,26,444,1,918,0.9,0.9,NA,1944,310,1,1950363342,203,151,7004,Kefar Uriyya,http://gis.cbs.gov.il/Yeshuvim_allyears/start.aspx?stl=364
KEFAR YA'BEZ,"Kfar Yavetz, Israel",32.273945,34.965463,כפר יעבץ,170,כפר יעבץ,4,41,411,18,141,1,667,0.7,0.7,NA,1932,310,2,1969468679,49,412,5120,Kefar Ya'bez,http://gis.cbs.gov.il/Yeshuvim_allyears/start.aspx?stl=170
KEFAR YEDIDYA,"Kfar Yedidia, Israel",32.344902,34.899038,כפר ידידיה,233,כפר ידידיה,4,41,411,16,141,1,760,0.8,0.8,NA,1935,310,1,1906669468,24,409,5120,Kefar Yedidya,http://gis.cbs.gov.il/Yeshuvim_allyears/start.aspx?stl=233
KEFAR ZETIM,NA,NA,NA,כפר זיתים,786,כפר זיתים,2,22,222,3,NA,1,782,0.8,0.8,NA,1950,310,1,2437674633,51,206,1240,Kefar Zetim,http://gis.cbs.gov.il/Yeshuvim_allyears/start.aspx?stl=786
KEFAR ZOHARIM,"Kfar Zoharim, Israel",31.622631,34.925669,כפר זוהרים,1325,כפר זוהרים,1,11,112,26,NA,1,200,0.2,0.2,NA,1995,340,NA,1929361436,301,151,7004,Kefar Zoharim,http://gis.cbs.gov.il/Yeshuvim_allyears/start.aspx?stl=1325
KELIL,"Klil, Israel",32.983567,35.199672,כליל,1183,כליל,2,24,243,4,NA,1,626,0.6,0.6,NA,1979,370,10,2191176514,174,201,1350,Kelil,http://gis.cbs.gov.il/Yeshuvim_allyears/start.aspx?stl=1183
KEMEHIN,"Kmehin, Israel",30.910327,34.430725,כמהין,1291,כמהין,6,62,626,48,NA,1,168,0.2,0.2,NA,1988,310,1,1455453580,225,620,3450,Kemehin,http://gis.cbs.gov.il/Yeshuvim_allyears/start.aspx?stl=1291
KERAMIM,"Kramim, Israel",31.333464,34.917879,כרמים,1198,כרמים,6,62,623,41,341,1,437,0.4,0.4,NA,1980,330,15,1921858239,402,625,3481,Keramim,http://gis.cbs.gov.il/Yeshuvim_allyears/start.aspx?stl=1198
KEREM BEN SHEMEN,"Kerem Ben Shemen, Israel",31.958896,34.934104,כרם בן שמן,88,כרם בן שמן,4,43,432,25,142,1,87,0.1,0.1,NA,1958,350,NA,1938065173,80,424,5280,Kerem Ben Shemen,http://gis.cbs.gov.il/Yeshuvim_allyears/start.aspx?stl=88
KEREM BEN ZIMRA,"Kerem Ben Zimra, Israel",33.039224,35.46988899999999,כרם בן זמרה,664,כרם בן זמרה,2,21,212,2,NA,1,475,0.5,0.5,NA,1949,310,2,2440477148,822,209,1230,Kerem Ben Zimra,http://gis.cbs.gov.il/Yeshuvim_allyears/start.aspx?stl=664
KEREM MAHARAL,"Kerem Maharal, Israel",32.644325,34.99145,"כרם מהר""ל",580,"כרם מהר""ל",3,32,322,15,243,1,720,0.7,0.7,NA,1949,310,1,1993872799,93,303,1181,Kerem Maharal,http://gis.cbs.gov.il/Yeshuvim_allyears/start.aspx?stl=580
KEREM SHALOM,Kerem Shalom,31.228281,34.284559,כרם שלום,1085,כרם שלום,6,62,622,38,NA,1,118,0.1,0.1,NA,1956,330,15,1317857105,87,651,3430,Kerem Shalom,http://gis.cbs.gov.il/Yeshuvim_allyears/start.aspx?stl=1085
KEREM YAVNE(YESHIVA),"כרם ביבנה, Israel",31.8169574,34.7236186,כרם יבנה (ישיבה),1094,כרם יבנה (ישיבה),4,44,441,29,143,1,492,0.5,0.5,NA,1963,340,NA,1738163628,50,456,3830,Kerem Yavne(Yeshiva),http://gis.cbs.gov.il/Yeshuvim_allyears/start.aspx?stl=1094
KESALON,"Ksalon, Israel",31.774262,35.048171,כסלון,859,כסלון,1,11,111,26,444,1,425,0.4,0.4,NA,1952,310,10,2047663127,606,151,7004,Kesalon,http://gis.cbs.gov.il/Yeshuvim_allyears/start.aspx?stl=859
KHAWALED,NA,NA,NA,ח'ואלד,1321,ח'ואלד,3,31,311,12,222,2,476,NA,NA,0.5,NA,450,NA,2131074174,62,301,1160,Khawaled,http://gis.cbs.gov.il/Yeshuvim_allyears/start.aspx?stl=1321
KINNERET(MOSHAVA),"Kinneret, Israel",32.723787,35.565242,כנרת (מושבה),63,כנרת (מושבה),2,22,221,6,NA,1,655,0.7,0.6,NA,1909,350,NA,2532473678,-73,251,1240,Kinneret(Moshava),http://gis.cbs.gov.il/Yeshuvim_allyears/start.aspx?stl=63
KINNERET(QEVUZA),NA,NA,NA,כנרת (קבוצה),57,כנרת (קבוצה),2,22,221,6,NA,1,695,0.7,0.7,NA,1908,330,15,2529873551,-171,214,1240,Kinneret(Qevuza),http://gis.cbs.gov.il/Yeshuvim_allyears/start.aspx?stl=57
KISHOR,"Kishor, Israel",32.946651,35.250213,כישור,1153,כישור,2,24,243,56,NA,1,169,0.2,0.2,NA,1976,330,15,2237176123,486,205,1310,Kishor,http://gis.cbs.gov.il/Yeshuvim_allyears/start.aspx?stl=1153
KISSUFIM,"Kissufim, Israel",31.374545,34.398992,כיסופים,840,כיסופים,6,62,622,38,NA,1,245,0.2,0.2,NA,1951,330,15,1428458732,85,651,3430,Kissufim,http://gis.cbs.gov.il/Yeshuvim_allyears/start.aspx?stl=840
KOCHLEA,"Petah Tikva, Israel",32.0878624,34.8677775,כחלה,1367,כחלה,6,62,623,69,NA,2,172,NA,NA,0.2,NA,450,NA,2050457753,531,624,3481,Kochlea,http://gis.cbs.gov.il/Yeshuvim_allyears/start.aspx?stl=1367
KORAZIM,"Chorazim, Israel",32.911112,35.55015,כורזים,1252,כורזים,2,21,213,55,NA,1,353,0.4,0.3,NA,1983,350,7,2518775737,165,253,1220,Korazim,http://gis.cbs.gov.il/Yeshuvim_allyears/start.aspx?stl=1252
LAHAV,"Lahav, Israel",31.379363,34.871311,להב,2023,להב,6,62,623,41,341,1,495,0.5,0.5,NA,1952,330,15,1875358757,455,625,3481,Lahav,http://gis.cbs.gov.il/Yeshuvim_allyears/start.aspx?stl=2023
LAHAVOT HABASHAN,"Lehavot HaBashan, Israel",33.1412178,35.6478714,להבות הבשן,380,להבות הבשן,2,21,211,1,NA,1,863,0.9,0.8,NA,1945,330,15,2607878299,88,253,1210,Lahavot HaBashan,http://gis.cbs.gov.il/Yeshuvim_allyears/start.aspx?stl=380
LAHAVOT HAVIVA,"Lehavot Haviva, Israel",32.395216,35.01179,להבות חביבה,715,להבות חביבה,3,32,324,14,NA,1,980,1,1,NA,1949,330,15,2010970013,42,351,1450,Lahavot Haviva,http://gis.cbs.gov.il/Yeshuvim_allyears/start.aspx?stl=715
LAKHISH,"Lachish, Israel",31.560907,34.84409,לכיש,24,לכיש,6,61,612,50,NA,1,741,0.7,0.7,NA,1955,310,1,1850760772,247,634,3820,Lakhish,http://gis.cbs.gov.il/Yeshuvim_allyears/start.aspx?stl=24
LAPPIDOT,"Lapidot, Israel",32.959801,35.260956,לפידות,1173,לפידות,2,24,243,52,NA,1,116,0.1,0.1,NA,1978,310,1,2248276267,471,255,1320,Lappidot,http://gis.cbs.gov.il/Yeshuvim_allyears/start.aspx?stl=1173
LAVI,"Lavi, Israel",32.787648,35.440717,לביא,585,לביא,2,22,222,3,NA,1,621,0.6,0.6,NA,1949,330,3,2417174366,299,206,1240,Lavi,http://gis.cbs.gov.il/Yeshuvim_allyears/start.aspx?stl=585
LAVON,"Lavon, Israel",32.94118,35.286475,לבון,1207,לבון,2,24,243,56,NA,1,695,0.7,0.7,NA,1980,350,NA,2270976073,554,205,1310,Lavon,http://gis.cbs.gov.il/Yeshuvim_allyears/start.aspx?stl=1207
LIMAN,"Liman, Israel",33.058732,35.111815,לימן,674,לימן,2,24,245,4,241,1,723,0.7,0.7,NA,1949,310,1,2108977387,15,201,1350,Liman,http://gis.cbs.gov.il/Yeshuvim_allyears/start.aspx?stl=674
LIVNIM,"Livnim, Israel",32.86379,35.497479,לבנים,1230,לבנים,2,22,221,2,NA,1,425,0.4,0.4,NA,1982,310,1,2466175214,-53,209,1240,Livnim,http://gis.cbs.gov.il/Yeshuvim_allyears/start.aspx?stl=1230
LOHAME HAGETA'OT,"Lohamei HaGeta'ot, Israel",32.962661,35.096741,לוחמי הגיטאות,595,לוחמי הגיטאות,2,24,245,4,241,1,628,0.6,0.6,NA,1949,330,15,2094776315,17,201,1350,Lohame HaGeta'ot,http://gis.cbs.gov.il/Yeshuvim_allyears/start.aspx?stl=595
LOTAN,"Lotan, Israel",29.988263,35.086776,לוטן,1255,לוטן,6,62,625,53,NA,1,198,0.2,0.2,NA,1983,330,15,2083243333,127,608,3460,Lotan,http://gis.cbs.gov.il/Yeshuvim_allyears/start.aspx?stl=1255
LOTEM,"Lotem, Israel",32.880858,35.35996,לוטם,1171,לוטם,2,24,242,56,NA,1,726,0.7,0.7,NA,1978,330,15,2338475416,315,205,1360,Lotem,http://gis.cbs.gov.il/Yeshuvim_allyears/start.aspx?stl=1171
LUZIT,"Luzit, Israel",31.688209,34.888222,לוזית,52,לוזית,1,11,112,26,NA,1,681,0.7,0.7,NA,1955,310,1,1893262158,189,151,7004,Luzit,http://gis.cbs.gov.il/Yeshuvim_allyears/start.aspx?stl=52
MA'AGAN,Ma'agan,32.706344,35.600575,מעגן,678,מעגן,2,22,221,6,NA,1,372,0.4,0.3,NA,1949,330,15,2565673472,-199,214,1240,Ma'agan,http://gis.cbs.gov.il/Yeshuvim_allyears/start.aspx?stl=678
MA'ALE AMOS,NA,NA,NA,מעלה עמוס,3653,מעלה עמוס,7,76,NA,76,NA,1,390,0.4,0.4,NA,1981,370,9,2218561153,715,714,4352,Ma'ale Amos,http://gis.cbs.gov.il/Yeshuvim_allyears/start.aspx?stl=3653
MA'ALE GAMLA,Ma'ale Gamla,32.88825600000001,35.685966,מעלה גמלא,4008,מעלה גמלא,2,29,293,71,NA,1,472,0.5,0.5,NA,1976,310,1,2643975504,113,219,1270,Ma'ale Gamla,http://gis.cbs.gov.il/Yeshuvim_allyears/start.aspx?stl=4008
MA'ALE GILBOA,"Ma'ale Gilboa, Israel",32.476065,35.420637,מעלה גלבוע,1127,מעלה גלבוע,2,23,231,7,NA,1,752,0.8,0.8,NA,1962,330,3,2396170917,429,202,1430,Ma'ale Gilboa,http://gis.cbs.gov.il/Yeshuvim_allyears/start.aspx?stl=1127
MA'ALE HAHAMISHA,"Ma'ale HaHamisha, Israel",31.817429,35.109406,מעלה החמישה,286,מעלה החמישה,1,11,111,26,444,1,716,0.7,0.7,NA,1938,330,15,2105963610,787,151,6129,Ma'ale HaHamisha,http://gis.cbs.gov.il/Yeshuvim_allyears/start.aspx?stl=286
MA'ALE LEVONA,"Ma'ale Levona St, Ramat Yishai, Israel",32.702096,35.1697265,מעלה לבונה,3752,מעלה לבונה,7,74,NA,73,NA,1,826,0.8,0.8,NA,1983,370,11,2228566240,756,711,4354,Ma'ale Levona,http://gis.cbs.gov.il/Yeshuvim_allyears/start.aspx?stl=3752
MA'ANIT,NA,NA,NA,מענית,344,מענית,3,32,324,14,NA,1,693,0.7,0.7,NA,1942,330,15,2028770696,64,351,1450,Ma'anit,http://gis.cbs.gov.il/Yeshuvim_allyears/start.aspx?stl=344
MA'AS,"Kfar Ma'as, Israel",32.063511,34.892639,מעש,230,מעש,4,42,422,20,132,1,845,0.8,0.8,NA,1935,310,1,1897266352,52,417,5130,Ma'as,http://gis.cbs.gov.il/Yeshuvim_allyears/start.aspx?stl=230
MA'BAROT,"Ma'abarot, Israel",32.364197,34.905733,מעברות,197,מעברות,4,41,411,16,141,1,974,1,1,NA,1933,330,15,1912669668,14,409,5120,Ma'barot,http://gis.cbs.gov.il/Yeshuvim_allyears/start.aspx?stl=197
MA'ON,Ma'on,31.414592,35.163893,מעון,3657,מעון,7,77,NA,78,NA,1,539,0.5,0.5,NA,1981,320,11,2156459129,774,715,4352,Ma'on,http://gis.cbs.gov.il/Yeshuvim_allyears/start.aspx?stl=3657
MA'OZ HAYYIM,"Maoz Haim, Israel",32.49407,35.550767,מעוז חיים,272,מעוז חיים,2,23,231,7,NA,1,475,0.5,0.5,NA,1937,330,15,2520071103,-245,202,1430,Ma'oz Hayyim,http://gis.cbs.gov.il/Yeshuvim_allyears/start.aspx?stl=272
MA'YAN BARUKH,"Ma'ayan Baruch, Israel",33.239349,35.609359,מעיין ברוך,416,מעיין ברוך,2,21,211,1,NA,1,653,0.7,0.6,NA,1947,330,15,2569979388,200,253,1210,Ma'yan Barukh,http://gis.cbs.gov.il/Yeshuvim_allyears/start.aspx?stl=416
MA'YAN ZEVI,"Ma'ayan Tzvi, Israel",32.568484,34.940623,מעיין צבי,290,מעיין צבי,3,32,322,15,NA,1,675,0.7,0.7,NA,1938,330,15,1946771935,96,303,1181,Ma'yan Zevi,http://gis.cbs.gov.il/Yeshuvim_allyears/start.aspx?stl=290
MAGEN,"Magen, Israel",31.298108,34.427059,מגן,695,מגן,6,62,622,38,NA,1,545,0.5,0.5,NA,1949,330,15,1454357893,119,651,3430,Magen,http://gis.cbs.gov.il/Yeshuvim_allyears/start.aspx?stl=695
MAGEN SHA'UL,"Magen Shaul, Israel",32.521471,35.306431,מגן שאול,1155,מגן שאול,2,23,234,8,NA,1,638,0.6,0.5,NA,1976,310,1,2291571410,82,204,1420,Magen Sha'ul,http://gis.cbs.gov.il/Yeshuvim_allyears/start.aspx?stl=1155
MAHANAYIM,"Mahanayim, Israel",32.988845,35.570375,מחניים,308,מחניים,2,21,213,1,NA,1,702,0.7,0.7,NA,1939,330,15,2536376606,264,253,1220,Mahanayim,http://gis.cbs.gov.il/Yeshuvim_allyears/start.aspx?stl=308
MAHANE YATTIR,"Lev Yatir, Israel",31.347793,35.060671,מחנה יתיר,1196,מחנה יתיר,6,62,623,NA,NA,1,217,0.2,0.2,NA,1979,350,NA,2057258396,653,699,3481,Mahane Yattir,http://gis.cbs.gov.il/Yeshuvim_allyears/start.aspx?stl=1196
MAHSEYA,"Mahseya, Israel",31.748858,35.00726,מחסיה,776,מחסיה,1,11,112,26,444,1,432,0.4,0.4,NA,1950,310,2,2007762837,251,151,7004,Mahseya,http://gis.cbs.gov.il/Yeshuvim_allyears/start.aspx?stl=776
MAKCHUL,"Makhul, Israel",31.288515,35.075736,מכחול,1343,מכחול,6,62,623,69,NA,2,421,NA,NA,0.4,NA,450,NA,2061057735,533,624,3481,Makchul,http://gis.cbs.gov.il/Yeshuvim_allyears/start.aspx?stl=1343
MALKISHUA,Malkishua,32.438568,35.412757,מלכישוע,1154,מלכישוע,2,23,231,7,NA,1,206,0.2,0.2,NA,1976,340,NA,2391070498,517,202,1430,Malkishua,http://gis.cbs.gov.il/Yeshuvim_allyears/start.aspx?stl=1154
MALKIYYA,"Malkia, Israel",33.098589,35.509624,מלכייה,596,מלכייה,2,21,212,1,NA,1,450,0.5,0.4,NA,1949,330,15,2480477844,652,253,1210,Malkiyya,http://gis.cbs.gov.il/Yeshuvim_allyears/start.aspx?stl=596
MANOF,"Manof, Israel",32.853258,35.237355,מנוף,1174,מנוף,2,24,241,56,241,1,822,0.8,0.8,NA,1980,310,10,2224575096,387,205,1360,Manof,http://gis.cbs.gov.il/Yeshuvim_allyears/start.aspx?stl=1174
MANOT,"Manot, Israel",33.038709,35.195156,מנות,1205,מנות,2,24,243,52,NA,1,405,0.4,0.4,NA,1980,310,1,2185477151,243,255,1350,Manot,http://gis.cbs.gov.il/Yeshuvim_allyears/start.aspx?stl=1205
MARGALIYYOT,"Margaliot, Israel",33.216474,35.544354,מרגליות,843,מרגליות,2,21,212,55,NA,1,407,0.4,0.4,NA,1951,310,1,2511979109,692,253,1210,Margaliyyot,http://gis.cbs.gov.il/Yeshuvim_allyears/start.aspx?stl=843
MASH'ABBE SADE,"Mashabei Sadeh, Israel",31.00404199999999,34.785029,משאבי שדה,421,משאבי שדה,6,62,626,48,NA,1,447,0.4,0.4,NA,1949,330,15,1795154587,349,620,3450,Mash'abbe Sade,http://gis.cbs.gov.il/Yeshuvim_allyears/start.aspx?stl=421
MASKIYYOT,"Maskit St, Herzliya, Israel",32.164483,34.8111665,משכיות,3785,משכיות,7,75,NA,75,NA,1,253,0.3,0.3,NA,1986,370,NA,2467768921,16,712,4164,Maskiyyot,http://gis.cbs.gov.il/Yeshuvim_allyears/start.aspx?stl=3785
MASLUL,"Maslul, Israel",31.323677,34.590761,מסלול,748,מסלול,6,62,622,42,344,1,849,0.8,0.8,NA,1950,310,1,1609258159,110,651,3430,Maslul,http://gis.cbs.gov.il/Yeshuvim_allyears/start.aspx?stl=748
MASSAD,"Masad, Israel",32.844172,35.423166,מסד,1258,מסד,2,22,222,3,NA,1,388,0.4,0.4,NA,1983,370,13,2398774991,271,206,1240,Massad,http://gis.cbs.gov.il/Yeshuvim_allyears/start.aspx?stl=1258
MASSADA,"Masada, Israel",32.682305,35.597657,מסדה,263,מסדה,2,22,221,6,NA,1,377,0.4,0.4,NA,1937,330,15,2563973220,-191,214,1240,Massada,http://gis.cbs.gov.il/Yeshuvim_allyears/start.aspx?stl=263
MASSU'A,"Netiv Massua, Ma'ale Adumim",31.7685643,35.2997906,משואה,3605,משואה,7,75,NA,75,NA,1,162,0.2,0.2,NA,1970,310,6,2466366892,-256,712,4164,Massu'a,http://gis.cbs.gov.il/Yeshuvim_allyears/start.aspx?stl=3605
MASSU'OT YIZHAQ,"Masu'ot Itzhak, Israel",31.70261,34.689968,משואות יצחק,620,משואות יצחק,6,61,611,34,NA,1,704,0.7,0.7,NA,1949,320,3,1706562348,60,631,3830,Massu'ot Yizhaq,http://gis.cbs.gov.il/Yeshuvim_allyears/start.aspx?stl=620
MATTA,NA,NA,NA,מטע,822,מטע,1,11,111,26,444,1,902,0.9,0.9,NA,1950,310,1,2059662505,607,151,7004,Matta,http://gis.cbs.gov.il/Yeshuvim_allyears/start.aspx?stl=822
MATTAT,"Mattat, Israel",33.041684,35.35669499999999,מתת,1184,מתת,2,24,244,52,NA,1,194,0.2,0.2,NA,1979,370,19,2337577178,805,255,1320,Mattat,http://gis.cbs.gov.il/Yeshuvim_allyears/start.aspx?stl=1184
MATTITYAHU,"Matityahu, Mateh Binyamin",31.929747,35.034997,מתתיהו,3648,מתתיהו,7,74,NA,73,NA,1,772,0.8,0.8,NA,1981,320,8,2030864848,265,711,4354,Mattityahu,http://gis.cbs.gov.il/Yeshuvim_allyears/start.aspx?stl=3648
MAVQI'IM,"Mavki'im, Israel",31.622518,34.577431,מבקיעים,573,מבקיעים,6,61,614,36,NA,1,422,0.4,0.4,NA,1949,310,6,1599161459,57,633,3840,Mavqi'im,http://gis.cbs.gov.il/Yeshuvim_allyears/start.aspx?stl=573
ME'IR SHEFEYA,"Me'ir Shfeya St, Petah Tikva, Israel",32.101972,34.8739245,מאיר שפיה,102,מאיר שפיה,3,32,322,15,NA,1,292,0.3,0.2,NA,1923,340,NA,1975772192,106,303,1181,Me'ir Shefeya,http://gis.cbs.gov.il/Yeshuvim_allyears/start.aspx?stl=102
ME'ONA,"Me'ona, Israel",33.016894,35.263626,מעונה,570,מעונה,2,24,243,52,NA,1,979,1,0.9,NA,1949,310,1,2247376901,470,255,1320,Me'ona,http://gis.cbs.gov.il/Yeshuvim_allyears/start.aspx?stl=570
ME AMMI,"Mei Ami, Israel",32.504963,35.146425,מי עמי,1128,מי עמי,3,32,323,14,NA,1,334,0.3,0.3,NA,1963,320,6,2141671229,463,351,1470,Me Ammi,http://gis.cbs.gov.il/Yeshuvim_allyears/start.aspx?stl=1128
MEGIDDO,"Megiddo, Israel",32.577899,35.179972,מגידו,586,מגידו,2,23,234,13,NA,1,852,0.9,0.8,NA,1949,330,15,2171172064,154,254,1420,Megiddo,http://gis.cbs.gov.il/Yeshuvim_allyears/start.aspx?stl=586
MEHOLA,Mehola,32.365285,35.51602,מחולה,3599,מחולה,7,75,NA,75,NA,1,517,0.5,0.5,NA,1968,310,2,2486869685,-177,712,4164,Mehola,http://gis.cbs.gov.il/Yeshuvim_allyears/start.aspx?stl=3599
MEKHORA,"Mekhora St, Pardes Hanna-Karkur, Israel",32.4715911,34.9915871,מכורה,3614,מכורה,7,75,NA,75,NA,1,142,0.1,0.1,NA,1973,310,10,2399967414,211,712,4164,Mekhora,http://gis.cbs.gov.il/Yeshuvim_allyears/start.aspx?stl=3614
MELE'A,"Mle'a, Israel",32.563149,35.237528,מלאה,164,מלאה,2,23,234,8,NA,1,396,0.4,0.4,NA,1956,310,1,2225471884,66,204,1420,Mele'a,http://gis.cbs.gov.il/Yeshuvim_allyears/start.aspx?stl=164
MELILOT,"Mlilot, Israel",31.389897,34.595243,מלילות,2044,מלילות,6,62,621,39,NA,1,301,0.3,0.3,NA,1953,310,2,1615158878,112,651,3482,Melilot,http://gis.cbs.gov.il/Yeshuvim_allyears/start.aspx?stl=2044
MENARA,"Manara, Israel",33.195375,35.543728,מנרה,347,מנרה,2,21,212,1,NA,1,227,0.2,0.2,NA,1943,330,15,2511778903,848,253,1210,Menara,http://gis.cbs.gov.il/Yeshuvim_allyears/start.aspx?stl=347
MENUHA,"Menuha, Israel",31.656159,34.777273,מנוחה,2030,מנוחה,6,61,611,50,NA,1,549,0.5,0.5,NA,1953,310,1,1789461842,103,634,3820,Menuha,http://gis.cbs.gov.il/Yeshuvim_allyears/start.aspx?stl=2030
MERAV,"Meirav, Israel",32.452041,35.422479,מירב,1282,מירב,2,23,231,7,NA,1,688,0.7,0.7,NA,1987,330,3,2399170654,395,202,1430,Merav,http://gis.cbs.gov.il/Yeshuvim_allyears/start.aspx?stl=1282
MERHAV AM,"Merhav Am, Israel",30.888022,34.828175,מרחב עם,1340,מרחב עם,6,62,626,48,NA,1,409,0.4,0.4,NA,2002,370,NA,1834853307,535,620,3450,Merhav Am,http://gis.cbs.gov.il/Yeshuvim_allyears/start.aspx?stl=1340
MERHAVYA(MOSHAV),"Merhavia, Israel",32.6047,35.3081,מרחביה (מושב),97,מרחביה (מושב),2,23,234,9,NA,1,671,0.7,0.7,NA,1922,310,1,2299872328,76,254,1420,Merhavya(Moshav),http://gis.cbs.gov.il/Yeshuvim_allyears/start.aspx?stl=97
MEROM GOLAN,Merom Golan,33.132583,35.77707100000001,מרום גולן,4101,מרום גולן,2,29,292,71,NA,1,701,0.7,0.7,NA,1967,330,15,2727778212,977,219,1270,Merom Golan,http://gis.cbs.gov.il/Yeshuvim_allyears/start.aspx?stl=4101
MERON,"Meron, Israel",32.985226,35.441643,מירון,607,מירון,2,21,212,2,NA,1,907,0.9,0.9,NA,1949,310,2,2414776580,693,209,1230,Meron,http://gis.cbs.gov.il/Yeshuvim_allyears/start.aspx?stl=607
MESHAR,"Meishar, Israel",31.815936,34.752588,מישר,731,מישר,4,44,441,32,143,1,828,0.8,0.8,NA,1950,310,10,1768163624,52,456,5230,Meshar,http://gis.cbs.gov.il/Yeshuvim_allyears/start.aspx?stl=731
MESILLOT,"Mesilot, Israel",32.497362,35.474651,מסילות,298,מסילות,2,23,231,7,NA,1,429,0.4,0.4,NA,1938,330,15,2448071130,-112,202,1430,Mesillot,http://gis.cbs.gov.il/Yeshuvim_allyears/start.aspx?stl=298
METAV,"Meitav, Israel",32.545509,35.300898,מיטב,2054,מיטב,2,23,234,8,NA,1,454,0.5,0.4,NA,1954,310,1,2285071685,72,204,1420,Metav,http://gis.cbs.gov.il/Yeshuvim_allyears/start.aspx?stl=2054
MEVO'OT YAM,"Mevo'ot Yam, Israel",32.401697,34.866797,מבואות ים,1318,מבואות ים,4,41,411,16,141,1,434,0.4,0.4,NA,1954,340,NA,1878270108,3,409,5120,Mevo'ot Yam,http://gis.cbs.gov.il/Yeshuvim_allyears/start.aspx?stl=1318
MEVO BETAR,"Mevo Beitar, Israel",31.722592,35.106656,מבוא ביתר,771,מבוא ביתר,1,11,111,26,444,1,899,0.9,0.9,NA,1950,320,9,2101162547,752,151,7004,Mevo Betar,http://gis.cbs.gov.il/Yeshuvim_allyears/start.aspx?stl=771
MEVO DOTAN,Mevo Dotan,32.420772,35.173869,מבוא דותן,3569,מבוא דותן,7,71,NA,72,NA,1,386,0.4,0.4,NA,1978,370,11,2167470291,329,710,4164,Mevo Dotan,http://gis.cbs.gov.il/Yeshuvim_allyears/start.aspx?stl=3569
MEVO HAMMA,Mevo Hama,32.736701,35.655207,מבוא חמה,4204,מבוא חמה,2,29,294,71,NA,1,383,0.4,0.4,NA,1968,330,15,2616873804,350,219,1270,Mevo Hamma,http://gis.cbs.gov.il/Yeshuvim_allyears/start.aspx?stl=4204
MEVO MODI'IM,"Mevo Modi'im, Israel",31.933851,34.98799899999999,מבוא מודיעים,1141,מבוא מודיעים,4,43,431,25,142,1,255,0.3,0.3,NA,1964,370,8,1989164897,210,424,5290,Mevo Modi'im,http://gis.cbs.gov.il/Yeshuvim_allyears/start.aspx?stl=1141
MEZADOT YEHUDA,Beit Yatir,31.365586,35.11134,מצדות יהודה,3745,מצדות יהודה,7,77,NA,78,NA,1,466,0.5,0.5,NA,1983,320,11,2107458587,875,715,4352,Mezadot Yehuda,http://gis.cbs.gov.il/Yeshuvim_allyears/start.aspx?stl=3745
MEZAR,Meitsar,32.768641,35.736356,מיצר,4019,מיצר,2,29,294,71,NA,1,244,0.2,0.2,NA,1981,310,15,2692674150,359,219,1270,Mezar,http://gis.cbs.gov.il/Yeshuvim_allyears/start.aspx?stl=4019
MEZER,"Metzer, Israel",32.440186,35.047702,מצר,648,מצר,3,32,324,14,NA,1,380,0.4,0.4,NA,1953,330,15,2046970512,76,351,1450,Mezer,http://gis.cbs.gov.il/Yeshuvim_allyears/start.aspx?stl=648
MIDRAKH OZ,"Midrakh Oz, Israel",32.59464800000001,35.157976,מדרך עוז,2029,מדרך עוז,2,23,234,13,NA,1,770,0.8,0.8,NA,1952,310,1,2151572230,128,254,1420,Midrakh Oz,http://gis.cbs.gov.il/Yeshuvim_allyears/start.aspx?stl=2029
MIDRESHET RUPPIN,Israel,32.343193,34.911908,מדרשת רופין,897,מדרשת רופין,4,41,411,16,141,1,418,0.3,0.3,NA,1948,340,NA,1919269429,25,409,5120,Midreshet Ruppin,http://gis.cbs.gov.il/Yeshuvim_allyears/start.aspx?stl=897
MIGDAL OZ,NA,NA,NA,מגדל עוז,3561,מגדל עוז,7,76,NA,76,445,1,605,0.6,0.6,NA,1977,330,3,2135761642,939,714,4352,Migdal Oz,http://gis.cbs.gov.il/Yeshuvim_allyears/start.aspx?stl=3561
MIGDALIM,Migdalim,32.089866,35.342633,מגדלים,3751,מגדלים,7,72,NA,72,NA,1,305,0.3,0.3,NA,1983,370,11,2324666631,779,710,4164,Migdalim,http://gis.cbs.gov.il/Yeshuvim_allyears/start.aspx?stl=3751
MIKHMANNIM,"Mikhmanim, Israel",32.905865,35.32899099999999,מכמנים,1202,מכמנים,2,24,242,56,NA,1,487,0.5,0.4,NA,1980,370,7,2309975686,498,205,1310,Mikhmannim,http://gis.cbs.gov.il/Yeshuvim_allyears/start.aspx?stl=1202
MIQWE YISRA'EL,NA,NA,NA,מקווה ישראל,22,מקווה ישראל,5,53,513,NA,123,1,426,0.4,0.4,NA,1870,340,NA,1794865963,27,599,2200,Miqwe Yisra'el,http://gis.cbs.gov.il/Yeshuvim_allyears/start.aspx?stl=22
MISGAV AM,"Misgav Am, Israel",33.247572,35.548499,משגב עם,378,משגב עם,2,21,212,1,NA,1,320,0.3,0.3,NA,1945,330,15,2515179474,801,253,1210,Misgav Am,http://gis.cbs.gov.il/Yeshuvim_allyears/start.aspx?stl=378
MISGAV DOV,"Misgav Dov, Israel",31.819054,34.739162,משגב דב,765,משגב דב,4,44,441,32,143,1,692,0.7,0.7,NA,1950,310,9,1754063647,58,456,5230,Misgav Dov,http://gis.cbs.gov.il/Yeshuvim_allyears/start.aspx?stl=765
MISHMAR AYYALON,"Mishmar Ayalon, Israel",31.872478,34.943253,משמר איילון,670,משמר איילון,4,43,432,30,143,1,532,0.5,0.5,NA,1949,310,1,1949564208,136,426,5220,Mishmar Ayyalon,http://gis.cbs.gov.il/Yeshuvim_allyears/start.aspx?stl=670
MISHMAR DAWID,"Mishmar David, Israel",31.82355799999999,34.900676,משמר דוד,563,משמר דוד,4,43,432,30,143,1,776,0.8,0.8,NA,1948,330,15,1906963671,153,426,5230,Mishmar Dawid,http://gis.cbs.gov.il/Yeshuvim_allyears/start.aspx?stl=563
MISHMAR HANEGEV,"Mishmar HaNegev, Israel",31.364796,34.71796800000001,משמר הנגב,395,משמר הנגב,6,62,621,41,341,1,866,0.9,0.8,NA,1946,330,15,1731558585,198,625,3485,Mishmar HaNegev,http://gis.cbs.gov.il/Yeshuvim_allyears/start.aspx?stl=395
MISHMAR HASHARON,"Mishmar HaSharon kibbutz, Israel",32.356305,34.904256,משמר השרון,194,משמר השרון,4,41,411,16,141,1,577,0.6,0.6,NA,1933,330,15,1911369590,19,409,5120,Mishmar HaSharon,http://gis.cbs.gov.il/Yeshuvim_allyears/start.aspx?stl=194
MISHMAR HAYARDEN,Mishmar HaYarden,33.003484,35.598271,משמר הירדן,732,משמר הירדן,2,21,213,55,NA,1,719,0.7,0.7,NA,1949,310,9,2563476779,231,253,1220,Mishmar HaYarden,http://gis.cbs.gov.il/Yeshuvim_allyears/start.aspx?stl=732
MISHMAROT,"Mishmarot, Israel",32.486513,34.983892,משמרות,213,משמרות,3,32,324,14,NA,1,842,0.8,0.8,NA,1933,330,15,1987771030,54,351,1180,Mishmarot,http://gis.cbs.gov.il/Yeshuvim_allyears/start.aspx?stl=213
MITSPE ILAN,"Mitspe Ilan, Israel",32.461378,35.068861,מצפה אילן,1370,מצפה אילן,3,32,323,14,NA,1,353,0.4,0.4,NA,2009,370,10,2067270748,149,351,1450,Mitspe Ilan,http://gis.cbs.gov.il/Yeshuvim_allyears/start.aspx?stl=1370
MIVTAHIM,"Mivtahim, Israel",31.242423,34.407488,מבטחים,829,מבטחים,6,62,622,38,NA,1,422,0.4,0.4,NA,1950,310,1,1435757236,130,651,3430,Mivtahim,http://gis.cbs.gov.il/Yeshuvim_allyears/start.aspx?stl=829
MIZPA,NA,NA,NA,מצפה,58,מצפה,2,22,222,3,NA,1,136,0.1,0.1,NA,1908,350,NA,2480474397,86,206,1240,Mizpa,http://gis.cbs.gov.il/Yeshuvim_allyears/start.aspx?stl=58
MIZPE AVIV,"Mitzpe Aviv, Israel",32.837951,35.201059,"מצפה אבי""ב",1222,"מצפה אבי""ב",2,24,241,56,241,1,985,1,1,NA,1981,370,10,2190774911,121,205,1360,Mizpe Aviv,http://gis.cbs.gov.il/Yeshuvim_allyears/start.aspx?stl=1222
MIZPE NETOFA,"Mitzpe Netofa, Israel",32.801748,35.383501,מצפה נטופה,1190,מצפה נטופה,2,23,237,3,NA,1,879,0.9,0.9,NA,1979,370,11,2362674534,394,206,1240,Mizpe Netofa,http://gis.cbs.gov.il/Yeshuvim_allyears/start.aspx?stl=1190
MIZPE SHALEM,Mitspe Shalem,31.568875,35.400367,מצפה שלם,3610,מצפה שלם,7,75,NA,74,NA,1,174,0.2,0.2,NA,1971,330,15,2381260837,-303,713,4355,Mizpe Shalem,http://gis.cbs.gov.il/Yeshuvim_allyears/start.aspx?stl=3610
MIZRA,"Mizra, Israel",32.649879,35.286404,מזרע,104,מזרע,2,23,234,9,NA,1,705,0.7,0.7,NA,1923,330,15,2271472850,99,254,1420,Mizra,http://gis.cbs.gov.il/Yeshuvim_allyears/start.aspx?stl=104
MOLADA*,NA,NA,NA,מולדה*,1360,מולדה*,6,62,623,69,NA,2,336,NA,NA,0.3,NA,450,NA,1971857373,428,624,3481,Molada*,http://gis.cbs.gov.il/Yeshuvim_allyears/start.aspx?stl=1360
MORAN,"Moran, Israel",32.921637,35.39481,מורן,1163,מורן,2,24,242,56,NA,1,443,0.4,0.4,NA,1977,330,15,2372075844,326,205,1310,Moran,http://gis.cbs.gov.il/Yeshuvim_allyears/start.aspx?stl=1163
MOZA ILLIT,"Motza Illit, Israel",31.793591,35.157,מוצא עילית,208,מוצא עילית,1,11,111,26,444,1,970,1,0.9,NA,1933,350,NA,2150263345,637,151,6129,Moza Illit,http://gis.cbs.gov.il/Yeshuvim_allyears/start.aspx?stl=208
NA'AMA,Na'omi,31.907541,35.467713,"נעמ""ה",3713,"נעמ""ה",7,75,NA,75,NA,1,116,0.1,0.1,NA,1982,310,1,2443164600,-193,712,4164,Na'ama,http://gis.cbs.gov.il/Yeshuvim_allyears/start.aspx?stl=3713
NAHAL OZ,"Nahal Oz, Israel",31.47267999999999,34.497675,נחל עוז,844,נחל עוז,6,61,614,37,NA,1,363,0.4,0.4,NA,1951,330,15,1522759807,70,651,3482,Nahal Oz,http://gis.cbs.gov.il/Yeshuvim_allyears/start.aspx?stl=844
NAHALA,"Nahala, Israel",31.66,34.792817,נחלה,2045,נחלה,6,61,611,35,NA,1,653,0.7,0.7,NA,1953,310,1,1806161848,122,632,3820,Nahala,http://gis.cbs.gov.il/Yeshuvim_allyears/start.aspx?stl=2045
NAHALAL,"Nahalal, Israel",32.690807,35.19609,נהלל,80,נהלל,2,23,234,9,NA,1,803,0.8,0.8,NA,1921,310,1,2187373287,85,254,1440,Nahalal,http://gis.cbs.gov.il/Yeshuvim_allyears/start.aspx?stl=80
NAHALI'EL,Nahliel,31.973542,35.140431,נחליאל,3767,נחליאל,7,74,NA,73,NA,1,639,0.6,0.6,NA,1984,370,8,2133365346,575,711,4354,Nahali'el,http://gis.cbs.gov.il/Yeshuvim_allyears/start.aspx?stl=3767
NAHAM,"Naham, Israel",31.7664783,35.0035723,נחם,809,נחם,1,11,112,26,444,1,517,0.5,0.5,NA,1950,310,2,2004163043,251,151,7004,Naham,http://gis.cbs.gov.il/Yeshuvim_allyears/start.aspx?stl=809
NAHSHOLIM,"Nahsholim, Israel",32.61309,34.92225,נחשולים,433,נחשולים,3,32,321,15,243,1,656,0.7,0.6,NA,1948,330,15,1928272439,5,303,1181,Nahsholim,http://gis.cbs.gov.il/Yeshuvim_allyears/start.aspx?stl=433
NAHSHON,"Nahshon, Israel",31.831616,34.955986,נחשון,777,נחשון,1,11,112,26,NA,1,523,0.5,0.5,NA,1950,330,15,1959063762,175,151,7004,Nahshon,http://gis.cbs.gov.il/Yeshuvim_allyears/start.aspx?stl=777
NAHSHONIM,"Nahshonim, Israel",32.063236,34.947011,נחשונים,705,נחשונים,4,42,422,20,142,1,362,0.4,0.4,NA,1949,330,15,1953266313,89,417,5160,Nahshonim,http://gis.cbs.gov.il/Yeshuvim_allyears/start.aspx?stl=705
NATAF,"Nataf, Israel",31.831276,35.06957999999999,נטף,1254,נטף,1,11,111,26,444,1,399,0.4,0.4,NA,1982,370,19,2065063769,509,151,6129,Nataf,http://gis.cbs.gov.il/Yeshuvim_allyears/start.aspx?stl=1254
NATUR,Natur,32.854068,35.752574,נטור,4014,נטור,2,29,294,71,NA,1,688,0.7,0.7,NA,1980,310,NA,2708175106,423,219,1270,Natur,http://gis.cbs.gov.il/Yeshuvim_allyears/start.aspx?stl=4014
NE'OT GOLAN,NA,NA,NA,נאות גולן,4551,נאות גולן,2,29,294,71,NA,1,574,0.6,0.5,NA,1967,310,6,2651174368,314,219,1270,Ne'ot Golan,http://gis.cbs.gov.il/Yeshuvim_allyears/start.aspx?stl=4551
NE'OT HAKIKKAR,"Neot HaKikar, Israel",30.933368,35.378126,נאות הכיכר,1124,נאות הכיכר,6,62,624,51,NA,1,411,0.4,0.4,NA,1961,310,10,2361253853,-354,656,3480,Ne'ot HaKikkar,http://gis.cbs.gov.il/Yeshuvim_allyears/start.aspx?stl=1124
NE'OT MORDEKHAY,"Neot Mordechai, Israel",33.159785,35.595602,נאות מרדכי,408,נאות מרדכי,2,21,211,1,NA,1,561,0.6,0.5,NA,1946,330,15,2560578503,75,253,1210,Ne'ot Mordekhay,http://gis.cbs.gov.il/Yeshuvim_allyears/start.aspx?stl=408
NE'OT SMADAR,"Neot Semadar, Israel",30.049079,35.028106,נאות סמדר,1197,נאות סמדר,6,62,627,53,NA,1,220,0.2,0.2,NA,1982,330,15,2022444008,407,608,3460,Ne'ot Smadar,http://gis.cbs.gov.il/Yeshuvim_allyears/start.aspx?stl=1197
NE'URIM,"Ne'urim, Rishon LeTsiyon, Israel",31.9739,34.814382,נעורים,186,נעורים,4,41,411,16,141,1,382,0.4,0.3,NA,1953,340,NA,1872369785,20,409,5120,Ne'urim,http://gis.cbs.gov.il/Yeshuvim_allyears/start.aspx?stl=186
NEGBA,"Negba, Israel",31.662547,34.679561,נגבה,315,נגבה,6,61,611,35,NA,1,913,0.9,0.9,NA,1939,330,15,1699561890,82,632,3820,Negba,http://gis.cbs.gov.il/Yeshuvim_allyears/start.aspx?stl=315
NEGOHOT,Negohot,31.493077,34.983347,נגוהות,3724,נגוהות,7,77,NA,78,NA,1,289,0.3,0.3,NA,1999,370,NA,1984260012,692,715,4352,Negohot,http://gis.cbs.gov.il/Yeshuvim_allyears/start.aspx?stl=3724
NES AMMIM,"Nes Ammim, Israel",32.965465,35.121588,נס עמים,1143,נס עמים,2,24,245,4,NA,1,332,0.3,0.3,NA,1964,350,NA,2116076346,26,201,1350,Nes Ammim,http://gis.cbs.gov.il/Yeshuvim_allyears/start.aspx?stl=1143
NETA,"Neta, Israel, Israel",31.477893,34.927774,נטע,1369,נטע,6,61,612,50,NA,1,457,0.5,0.5,NA,2012,370,11,1930459850,425,634,3820,Neta,http://gis.cbs.gov.il/Yeshuvim_allyears/start.aspx?stl=1369
NETA'IM,"Neta'im, Israel",31.945689,34.775145,נטעים,174,נטעים,4,44,442,27,143,1,604,0.6,0.6,NA,1932,310,1,1789165027,50,456,5210,Neta'im,http://gis.cbs.gov.il/Yeshuvim_allyears/start.aspx?stl=174
NETIV HAASARA,"Netiv HaAsara, Israel",31.572407,34.539322,נתיב העשרה,1242,נתיב העשרה,6,61,614,36,NA,1,821,0.8,0.8,NA,1982,310,1,1563460906,60,633,3840,Netiv HaAsara,http://gis.cbs.gov.il/Yeshuvim_allyears/start.aspx?stl=1242
NETIV HAGEDUD,Netiv HaGdud,31.989412,35.443281,נתיב הגדוד,3555,נתיב הגדוד,7,75,NA,75,NA,1,190,0.2,0.2,NA,1976,310,1,2421465510,-220,712,4164,Netiv HaGedud,http://gis.cbs.gov.il/Yeshuvim_allyears/start.aspx?stl=3555
