transcript,formatted.address,lat.coord,lon.coord,place,sign,place_name,district,nafa,natural_area_class,municipla_class,metropolitan_class,religion,total_population,jews and others,jews,arabs,est_year,settlement_method,organizational_association,coordinates,hight,planning_commetee,police,transcript_pub,שדה לקישור
ABU GHOSH,"Abu Ghosh, Israel",31.806293,35.109193,אבו גוש,472,אבו גוש,1,11,111,99,444,2,7140,NA,NA,7.1,NA,280,NA,2105263481,686,152,6129,Abu Ghosh,http://gis.cbs.gov.il/Yeshuvim_allyears/start.aspx?stl=472
ABU QUREINAT,"Abu Qureinat, Israel",31.145681,34.965476,אבו קורינאת (יישוב),1342,אבו קורינאת (יישוב),6,62,623,68,NA,2,1440,NA,NA,1.4,NA,450,NA,1962956100,450,624,3481,Abu Qureinat,http://gis.cbs.gov.il/Yeshuvim_allyears/start.aspx?stl=1342
ABU SINAN,"Abu Snan, Israel",32.95803,35.171969,אבו סנאן,473,אבו סנאן,2,24,245,99,NA,2,13518,NA,NA,13.5,NA,270,NA,2160676282,71,252,1330,Abu Sinan,http://gis.cbs.gov.il/Yeshuvim_allyears/start.aspx?stl=473
ADI,"Adi, Israel",32.782353,35.173412,עדי,1199,עדי,2,24,241,9,242,1,1928,1.9,1.9,NA,1980,370,7,2165674307,167,254,1340,Adi,http://gis.cbs.gov.il/Yeshuvim_allyears/start.aspx?stl=1199
AFIQIM,"Afikim, Israel",32.680564,35.57773,אפיקים,176,אפיקים,2,22,221,6,NA,1,1452,1.5,1.4,NA,1932,330,15,2544973191,-199,214,1240,Afiqim,http://gis.cbs.gov.il/Yeshuvim_allyears/start.aspx?stl=176
AFULA,"Afula, Israel",32.6104931,35.287922,עפולה,7700,עפולה,2,23,234,0,NA,1,47014,46.6,42.6,NA,1925,160,NA,2286772477,144,215,1420,Afula,http://gis.cbs.gov.il/Yeshuvim_allyears/start.aspx?stl=7700
AHI'EZER,"Ahi'ezer, Israel",31.981671,34.871821,אחיעזר,797,אחיעזר,4,43,432,40,133,1,1770,1.8,1.8,NA,1950,310,2,1879665440,40,425,5280,Ahi'ezer,http://gis.cbs.gov.il/Yeshuvim_allyears/start.aspx?stl=797
AHISAMAKH,"Ahisamakh, Israel",31.931906,34.908576,אחיסמך,804,אחיסמך,4,43,432,25,142,1,1376,1.4,1.4,NA,1950,310,1,1914164920,69,424,5280,Ahisamakh,http://gis.cbs.gov.il/Yeshuvim_allyears/start.aspx?stl=804
AHITUV,"Ahituv, Israel",32.387701,34.990826,אחיטוב,850,אחיטוב,4,41,412,16,141,1,1052,1.1,1,NA,1951,310,1,1993269934,42,409,5120,Ahituv,http://gis.cbs.gov.il/Yeshuvim_allyears/start.aspx?stl=850
AHUZZAT BARAQ,"Ahuzat Barak, Israel",32.643101,35.338893,אחוזת ברק,1330,אחוזת ברק,2,23,234,9,NA,1,2135,2.1,2.1,NA,1998,190,19,2320172759,159,254,1420,Ahuzzat Baraq,http://gis.cbs.gov.il/Yeshuvim_allyears/start.aspx?stl=1330
AKKO,"Acre, Israel",32.933052000000004,35.082678,עכו,7600,עכו,2,24,246,0,241,4,47808,32.8,29.5,15,1948,160,NA,2082275924,9,213,1330,Akko,http://gis.cbs.gov.il/Yeshuvim_allyears/start.aspx?stl=7600
AL SAYYID,"AlSayid Tribe, Israel",31.281719,34.916298,אל סייד,1359,אל סייד,6,62,623,69,342,2,3692,NA,NA,3.7,NA,290,NA,1917857711,376,624,3481,Al Sayyid,http://gis.cbs.gov.il/Yeshuvim_allyears/start.aspx?stl=1359
ALE ZAHAV,Alei Zahav,32.072227,35.064135,עלי זהב,3727,עלי זהב,7,73,NA,72,145,1,1643,1.6,1.6,NA,1982,370,9,2063666418,367,710,4164,Ale Zahav,http://gis.cbs.gov.il/Yeshuvim_allyears/start.aspx?stl=3727
ALFE MENASHE,Alfei Menashe,32.170631,35.014858,אלפי מנשה,3750,אלפי מנשה,7,73,NA,99,145,1,7780,7.8,7.5,NA,1983,180,NA,2014067559,184,703,4164,Alfe Menashe,http://gis.cbs.gov.il/Yeshuvim_allyears/start.aspx?stl=3750
ALLON HAGALIL,"Alon HaGalil, Israel",32.756874,35.220294,אלון הגליל,1182,אלון הגליל,2,23,237,9,242,1,1071,1.1,1.1,NA,1980,310,1,2209474026,203,254,1410,Allon HaGalil,http://gis.cbs.gov.il/Yeshuvim_allyears/start.aspx?stl=1182
ALLON SHEVUT,Alon Shvut,31.654871,35.125256,אלון שבות,3604,אלון שבות,7,76,NA,76,445,1,3180,3.2,3.2,NA,1970,190,NA,2119961807,953,714,4352,Allon Shevut,http://gis.cbs.gov.il/Yeshuvim_allyears/start.aspx?stl=3604
ALMON,Almon,31.832068,35.296764,עלמון,3715,עלמון,7,74,NA,73,445,1,1329,1.3,1.3,NA,1982,370,11,2280563753,502,711,4354,Almon,http://gis.cbs.gov.il/Yeshuvim_allyears/start.aspx?stl=3715
AMMINADAV,"Aminadav, Israel",31.75170499999999,35.142428,עמינדב,779,עמינדב,1,11,111,26,444,1,1129,1.1,1.1,NA,1950,310,1,2135062877,824,151,6130,Amminadav,http://gis.cbs.gov.il/Yeshuvim_allyears/start.aspx?stl=779
AR'ARA,"Ar'ara, Israel",32.496323,35.097292,ערערה,637,ערערה,3,32,323,99,NA,2,24166,NA,NA,24.1,NA,260,NA,2087371171,172,354,1450,Ar'ara,http://gis.cbs.gov.il/Yeshuvim_allyears/start.aspx?stl=637
AR'ARA-BANEGEV,"Ar'arat an-Naqab, Israel",31.160927,35.019757,ערערה-בנגב,1192,ערערה-בנגב,6,62,623,99,NA,2,16344,NA,NA,16.3,NA,270,NA,2021956302,458,652,3481,Ar'ara-BaNegev,http://gis.cbs.gov.il/Yeshuvim_allyears/start.aspx?stl=1192
ARAD,"Arad, Israel",31.261447,35.214862,ערד,2560,ערד,6,62,623,0,NA,1,24713,24,19.9,NA,1961,160,NA,2203557414,528,610,3480,Arad,http://gis.cbs.gov.il/Yeshuvim_allyears/start.aspx?stl=2560
ARAMSHA,"Arab al-Aramshe, Israel",33.088834,35.228839,עראמשה*,1246,עראמשה*,2,24,244,4,NA,2,1611,NA,NA,1.6,NA,450,NA,2214477704,428,201,1350,Aramsha,http://gis.cbs.gov.il/Yeshuvim_allyears/start.aspx?stl=1246
ARI'EL,Ari'el,32.104637,35.17451399999999,אריאל,3570,אריאל,7,73,NA,0,145,1,19220,19,15.5,NA,1978,170,NA,2180866797,521,701,4164,Ari'el,http://gis.cbs.gov.il/Yeshuvim_allyears/start.aspx?stl=3570
ARRABE,"Arraba, Israel",32.853705,35.337167,עראבה,531,עראבה,2,24,241,99,NA,2,24450,NA,NA,24.4,NA,260,NA,2319675076,247,262,1360,Arrabe,http://gis.cbs.gov.il/Yeshuvim_allyears/start.aspx?stl=531
ARUGOT,"Arugot, Israel",31.732798,34.77624,ערוגות,593,ערוגות,6,61,611,33,143,1,1155,1.2,1.1,NA,1949,310,1,1785162692,66,616,3830,Arugot,http://gis.cbs.gov.il/Yeshuvim_allyears/start.aspx?stl=593
ASHDOD,"Ashdod, Israel",31.804381,34.655314,אשדוד,70,אשדוד,6,61,613,0,143,1,221591,221.4,199.8,NA,1955,130,NA,1669163377,23,603,3870,Ashdod,http://gis.cbs.gov.il/Yeshuvim_allyears/start.aspx?stl=70
ASHQELON,"Ashkelon, Israel",31.6687885,34.5742523,אשקלון,7100,אשקלון,6,61,614,0,NA,1,134454,134.1,118,NA,1948,140,NA,1596761975,36,604,3810,Ashqelon,http://gis.cbs.gov.il/Yeshuvim_allyears/start.aspx?stl=7100
ATLIT,"Atlit, Israel",32.690875,34.942914,עתלית,53,עתלית,3,32,321,15,223,1,6994,6.9,6.8,NA,1904,180,NA,1949073297,11,303,1182,Atlit,http://gis.cbs.gov.il/Yeshuvim_allyears/start.aspx?stl=53
ATSMON SEGEV,"Atzmon, Israel",32.865802,35.252335,עצמון שגב,917,עצמון שגב,2,24,241,56,241,1,1079,1.1,1.1,NA,1953,370,13,2239175235,319,205,1360,Atsmon Segev,http://gis.cbs.gov.il/Yeshuvim_allyears/start.aspx?stl=917
AVIHAYIL,"Avihayil, Israel",32.350708,34.871229,אביחיל,175,אביחיל,4,41,411,16,141,1,1386,1.4,1.4,NA,1932,310,1,1880769526,35,409,5110,Avihayil,http://gis.cbs.gov.il/Yeshuvim_allyears/start.aspx?stl=175
AVNE HEFEZ,Avnei Hefetz,32.284628,35.074551,אבני חפץ,3793,אבני חפץ,7,73,NA,72,NA,1,1759,1.8,1.8,NA,1990,370,11,2071268798,191,710,4164,Avne Hefez,http://gis.cbs.gov.il/Yeshuvim_allyears/start.aspx?stl=3793
AYYELET HASHAHAR,"Ayelet HaShahar, Israel",33.021115,35.576732,איילת השחר,77,איילת השחר,2,21,211,1,NA,1,1202,1.2,1.1,NA,1918,330,15,2542476979,173,253,1220,Ayyelet HaShahar,http://gis.cbs.gov.il/Yeshuvim_allyears/start.aspx?stl=77
AZARYA,"Azaria, Israel",31.890495,34.911872,עזריה,711,עזריה,4,43,432,30,143,1,1218,1.2,1.2,NA,1949,310,1,1915464420,96,426,5220,Azarya,http://gis.cbs.gov.il/Yeshuvim_allyears/start.aspx?stl=711
AZOR,"Azor, Israel",32.029558,34.799648,אזור,565,אזור,5,53,513,99,123,1,12569,12.6,11.9,NA,1948,170,NA,1819265901,25,552,2200,Azor,http://gis.cbs.gov.il/Yeshuvim_allyears/start.aspx?stl=565
AZRIQAM,"Azrikam, Israel",31.751695,34.694818,עזריקם,817,עזריקם,6,61,611,33,143,1,1414,1.4,1.4,NA,1950,310,1,1713862880,39,616,3830,Azriqam,http://gis.cbs.gov.il/Yeshuvim_allyears/start.aspx?stl=817
BAQA AL-GHARBIYYE,"Baqa al-Gharbiyye, Israel",32.422891,35.035764,באקה אל-גרביה,6e3,באקה אל-גרביה,3,32,324,0,NA,2,28526,NA,NA,28.5,NA,260,NA,2041670283,67,354,1450,Baqa Al-Gharbiyye,http://gis.cbs.gov.il/Yeshuvim_allyears/start.aspx?stl=6000
BAREQET,"Bareket, Israel",32.018344,34.943179,ברקת,2038,ברקת,4,42,422,25,142,1,1932,1.9,1.9,NA,1952,310,2,1948965814,82,424,5160,Bareqet,http://gis.cbs.gov.il/Yeshuvim_allyears/start.aspx?stl=2038
BARQAN,Barkan,32.109487,35.106008,ברקן,3654,ברקן,7,73,NA,72,145,1,1798,1.8,1.7,NA,1981,370,9,2104466805,432,710,4164,Barqan,http://gis.cbs.gov.il/Yeshuvim_allyears/start.aspx?stl=3654
BASMA,"Basma, Israel",32.52940100000001,35.103199,"בסמ""ה",1326,"בסמ""ה",3,32,323,99,NA,2,9184,NA,NA,9.2,NA,280,NA,2105471492,239,354,1450,Basma,http://gis.cbs.gov.il/Yeshuvim_allyears/start.aspx?stl=1326
BASMAT TAB'UN,"Basmat Tab'un, Israel",32.736287,35.1532,בסמת טבעון,944,בסמת טבעון,2,23,237,99,242,2,7619,NA,NA,7.6,NA,280,NA,2131573776,189,257,1160,Basmat Tab'un,http://gis.cbs.gov.il/Yeshuvim_allyears/start.aspx?stl=944
BAT AYIN,Bat Ayin,31.657653,35.101101,בת עין,3794,בת עין,7,76,NA,76,445,1,1307,1.3,1.3,NA,1989,370,11,2095961845,810,714,4352,Bat Ayin,http://gis.cbs.gov.il/Yeshuvim_allyears/start.aspx?stl=3794
BAT HEFER,Bat Hefer,32.333714,35.013729,בת חפר,1319,בת חפר,4,41,412,16,141,1,5412,5.4,5.3,NA,1996,180,NA,2014969329,57,409,5150,Bat Hefer,http://gis.cbs.gov.il/Yeshuvim_allyears/start.aspx?stl=1319
BAT YAM,"Bat Yam, Israel",32.013186,34.748019,בת ים,6200,בת ים,5,53,513,0,123,1,128904,128.2,104.6,NA,1926,140,NA,1765265859,23,502,2200,Bat Yam,http://gis.cbs.gov.il/Yeshuvim_allyears/start.aspx?stl=6200
BAZRA,"Batzra, Israel",32.214541,34.878123,בצרה,389,בצרה,4,41,411,19,141,1,1153,1.2,1.1,NA,1946,310,10,1886968001,26,401,5120,Bazra,http://gis.cbs.gov.il/Yeshuvim_allyears/start.aspx?stl=389
BE'ER SHEVA,"Be'er Sheva, Israel",31.252973,34.791462,באר שבע,9e3,באר שבע,6,62,623,0,310,1,205810,200.8,180.3,NA,1948,130,NA,1796657357,291,605,3440,Be'er Sheva,http://gis.cbs.gov.il/Yeshuvim_allyears/start.aspx?stl=9000
BE'ER TOVIYYA,"Be'er Tuvia Regional Council, Israel",31.766667,34.71666700000001,באר טוביה,155,באר טוביה,6,61,611,33,143,1,1108,1.1,1.1,NA,1930,310,1,1738362694,53,616,3830,Be'er Toviyya,http://gis.cbs.gov.il/Yeshuvim_allyears/start.aspx?stl=155
BE'ER YA'AQOV,"Be'er Ya'akov, Israel",31.943507,34.83904,באר יעקב,2530,באר יעקב,4,43,432,99,133,1,20378,20.3,19.7,NA,1907,160,NA,1850165017,66,455,5220,Be'er Ya'aqov,http://gis.cbs.gov.il/Yeshuvim_allyears/start.aspx?stl=2530
BE'ERI,"Be'eri, Israel",31.424513,34.492567,בארי,399,בארי,6,62,622,38,NA,1,1018,1,1,NA,1946,330,15,1516259265,88,651,3430,Be'eri,http://gis.cbs.gov.il/Yeshuvim_allyears/start.aspx?stl=399
BE'EROTAYIM,"Be'erotayim, Israel",32.321039,34.98343,בארותיים,697,בארותיים,4,41,412,16,141,1,1137,1.1,1.1,NA,1949,310,1,1986369200,35,409,5120,Be'erotayim,http://gis.cbs.gov.il/Yeshuvim_allyears/start.aspx?stl=697
BEIT JANN,"Beit Jann, Israel",32.965655,35.381268,בית ג'ן,480,בית ג'ן,2,24,243,99,NA,2,11568,NA,NA,11.6,NA,270,NA,2357276326,898,258,1310,Beit Jann,http://gis.cbs.gov.il/Yeshuvim_allyears/start.aspx?stl=480
BEN ZAKKAY,"Ben Zakai, Israel",31.85722299999999,34.727432,בן זכאי,760,בן זכאי,4,44,441,29,143,1,1087,1.1,1.1,NA,1950,310,2,1744464050,30,456,5230,Ben Zakkay,http://gis.cbs.gov.il/Yeshuvim_allyears/start.aspx?stl=760
BENE AYISH,"Bnei Ayish, Israel",31.790235,34.759291,"בני עי""ש",1066,"בני עי""ש",4,44,441,99,143,1,6955,6.9,5.6,NA,1958,180,NA,1774063310,75,453,3830,Bene Ayish,http://gis.cbs.gov.il/Yeshuvim_allyears/start.aspx?stl=1066
BENE BERAQ,"Bnei Brak, Israel",32.084932,34.835226,בני ברק,6100,בני ברק,5,52,512,0,122,1,188964,188.9,187.5,NA,1924,140,NA,1845666599,26,501,2300,Bene Beraq,http://gis.cbs.gov.il/Yeshuvim_allyears/start.aspx?stl=6100
BENE DEROR,"Bnei Dror, Israel",32.261795,34.901791,בני דרור,386,בני דרור,4,41,411,18,141,1,1238,1.2,1.2,NA,1946,320,1,1907168542,33,412,5120,Bene Deror,http://gis.cbs.gov.il/Yeshuvim_allyears/start.aspx?stl=386
BENE RE'EM,"Bnei Re'em, Israel",31.769972,34.790463,בני ראם,588,בני ראם,4,44,441,31,143,1,1338,1.3,1.3,NA,1949,310,8,1803363100,64,456,5230,Bene Re'em,http://gis.cbs.gov.il/Yeshuvim_allyears/start.aspx?stl=588
BENE YEHUDA,Bnei Yehuda,32.798262,35.69107,בני יהודה,4015,בני יהודה,2,29,294,71,NA,1,1024,1,0.9,NA,1972,370,13,2648874494,345,219,1270,Bene Yehuda,http://gis.cbs.gov.il/Yeshuvim_allyears/start.aspx?stl=4015
BENE ZIYYON,"Bene Beitecha, Beit Dagan, Israel",31.999554,34.827221,בני ציון,418,בני ציון,4,41,411,19,141,1,1412,1.4,1.4,NA,1947,310,10,1878268067,35,401,5120,Bene Ziyyon,http://gis.cbs.gov.il/Yeshuvim_allyears/start.aspx?stl=418
BERAKHA,Har Brakha,32.193264,35.264885,ברכה,3710,ברכה,7,72,NA,72,NA,1,2339,2.3,1.9,NA,1983,190,11,2252167766,844,710,4164,Berakha,http://gis.cbs.gov.il/Yeshuvim_allyears/start.aspx?stl=3710
BEREKHYA,"Berekhya, Israel",31.66804699999999,34.624296,ברכיה,746,ברכיה,6,61,614,36,NA,1,1210,1.2,1.2,NA,1950,310,1,1645461979,43,633,3830,Berekhya,http://gis.cbs.gov.il/Yeshuvim_allyears/start.aspx?stl=746
BET ARIF,"Beit Arif, Israel",31.995352,34.935103,בית עריף,604,בית עריף,4,43,432,25,142,1,1124,1.1,1.1,NA,1951,310,1,1939465589,60,424,5160,Bet Arif,http://gis.cbs.gov.il/Yeshuvim_allyears/start.aspx?stl=604
BET ARYE,Beit Aryeh-Ofarim,32.040059,35.049472,בית אריה,3652,בית אריה,7,74,NA,99,145,1,4842,4.8,4.7,NA,1981,190,NA,2048465998,295,719,4354,Bet Arye,http://gis.cbs.gov.il/Yeshuvim_allyears/start.aspx?stl=3652
BET DAGAN,"Beit Dagan, Israel",32.0017816,34.8297087,בית דגן,466,בית דגן,4,43,432,99,133,1,7098,7.1,7,NA,1948,180,NA,1840865644,34,455,5210,Bet Dagan,http://gis.cbs.gov.il/Yeshuvim_allyears/start.aspx?stl=466
BET EL,Beit El,31.94159999999999,35.222734,בית אל,3574,בית אל,7,74,NA,99,445,1,6115,6.1,6.1,NA,1977,180,NA,2212164987,853,711,4354,Bet El,http://gis.cbs.gov.il/Yeshuvim_allyears/start.aspx?stl=3574
BET EL'AZARI,"Beit Elazari, Israel",31.844717,34.806627,בית אלעזרי,562,בית אלעזרי,4,44,441,28,143,1,1524,1.5,1.5,NA,1948,310,1,1814763910,43,456,5230,Bet El'azari,http://gis.cbs.gov.il/Yeshuvim_allyears/start.aspx?stl=562
BET EZRA,"Beit Ezra, Israel",31.736401999999998,34.657514,בית עזרא,756,בית עזרא,6,61,611,33,143,1,1092,1.1,1.1,NA,1950,310,1,1674262732,44,616,3830,Bet Ezra,http://gis.cbs.gov.il/Yeshuvim_allyears/start.aspx?stl=756
BET HASHITTA,"Beit HaShita, Israel",32.550874,35.43935099999999,בית השיטה,242,בית השיטה,2,23,232,8,NA,1,1223,1.2,1.2,NA,1935,330,15,2414671749,-1,204,1430,Bet HaShitta,http://gis.cbs.gov.il/Yeshuvim_allyears/start.aspx?stl=242
BET HASHMONAY,"Beit Hashmonai, Israel",31.890298,34.917599,בית חשמונאי,1050,בית חשמונאי,4,43,432,30,143,1,2186,2.2,2.2,NA,1972,190,NA,1924064401,102,426,5220,Bet Hashmonay,http://gis.cbs.gov.il/Yeshuvim_allyears/start.aspx?stl=1050
BET HILQIYYA,"Beit Hilkia, Israel",31.793001,34.809698,בית חלקיה,2033,בית חלקיה,4,44,441,31,143,1,1156,1.2,1.2,NA,1953,310,8,1822663335,67,456,5230,Bet Hilqiyya,http://gis.cbs.gov.il/Yeshuvim_allyears/start.aspx?stl=2033
BET HORON,Beit Horon,31.87989,35.124097,בית חורון,3575,בית חורון,7,74,NA,73,445,1,1240,1.2,1.2,NA,1977,370,11,2120864281,635,711,4354,Bet Horon,http://gis.cbs.gov.il/Yeshuvim_allyears/start.aspx?stl=3575
BET QAMA,"Beit Kama, Israel",31.446566,34.762248,בית קמה,598,בית קמה,6,62,621,41,341,1,1400,1.4,1.4,NA,1949,330,15,1773459523,238,625,3485,Bet Qama,http://gis.cbs.gov.il/Yeshuvim_allyears/start.aspx?stl=598
BET RABBAN,Israel,31.819487,34.729208,בית רבן,848,בית רבן,4,44,441,29,143,1,1145,1.1,1.1,NA,1946,340,NA,1744863615,54,456,3830,Bet Rabban,http://gis.cbs.gov.il/Yeshuvim_allyears/start.aspx?stl=848
BET SHE'AN,"Beit She'an, Israel",32.497103,35.497336,בית שאן,9200,בית שאן,2,23,231,0,NA,1,17587,17.5,17.1,NA,1948,170,NA,2470271150,-134,203,1430,Bet She'an,http://gis.cbs.gov.il/Yeshuvim_allyears/start.aspx?stl=9200
BET SHEMESH,"Bet Shemesh, Israel",31.747041,34.988099,בית שמש,2610,בית שמש,1,11,112,0,444,1,109762,109.6,107.6,NA,1950,140,NA,1990362715,307,102,6140,Bet Shemesh,http://gis.cbs.gov.il/Yeshuvim_allyears/start.aspx?stl=2610
BET YEHOSHUA,"Beit Yehoshua, Israel",32.262075,34.865418,בית יהושע,288,בית יהושע,4,41,411,19,141,1,1037,1,1,NA,1938,310,6,1875268523,23,401,5120,Bet Yehoshua,http://gis.cbs.gov.il/Yeshuvim_allyears/start.aspx?stl=288
BET YIZHAQ-SH. HEFER,"Beit Yitzhak-Sha'ar Hefer, Israel",32.33558,34.8895,בית יצחק-שער חפר,326,בית יצחק-שער חפר,4,41,411,16,141,1,2112,2.1,2.1,NA,1940,191,10,1899269340,27,409,5120,Bet Yizhaq-Sh. Hefer,http://gis.cbs.gov.il/Yeshuvim_allyears/start.aspx?stl=326
BET ZAYIT,"Beit Zayit, Israel",31.783058,35.161117,בית זית,710,בית זית,1,11,111,26,444,1,1637,1.6,1.6,NA,1949,310,1,2154163215,604,151,6129,Bet Zayit,http://gis.cbs.gov.il/Yeshuvim_allyears/start.aspx?stl=710
BETAR ILLIT,Betar Illit,31.7010023,35.1119254,ביתר עילית,3780,ביתר עילית,7,76,NA,0,445,1,51636,51.6,51.6,NA,1985,150,NA,2109162265,703,716,4352,Betar Illit,http://gis.cbs.gov.il/Yeshuvim_allyears/start.aspx?stl=3780
BI'NE,"Bi'ina, Israel",32.929538,35.27191699999999,בענה,483,בענה,2,24,242,99,NA,2,7993,NA,NA,8,NA,280,NA,2258575937,259,260,1310,Bi'ne,http://gis.cbs.gov.il/Yeshuvim_allyears/start.aspx?stl=483
BINYAMINA-GIV'AT ADA,"Binyamina-Giv'at Ada, Israel",32.517078,34.955096,בנימינה-גבעת עדה*,9800,בנימינה-גבעת עדה*,3,32,324,99,NA,1,15243,15.2,14.7,NA,1903,170,NA,1967871417,36,353,1181,Binyamina-Giv'at Ada,http://gis.cbs.gov.il/Yeshuvim_allyears/start.aspx?stl=9800
BIR EL-MAKSUR,"Bir al-Maksur, Israel",32.777291,35.22057100000001,ביר אל-מכסור,998,ביר אל-מכסור,2,24,241,99,241,2,8903,NA,NA,8.9,NA,280,NA,2211274307,249,261,1340,Bir El-Maksur,http://gis.cbs.gov.il/Yeshuvim_allyears/start.aspx?stl=998
BIR HADAGE,"Bir Hadaj, Israel",31.02316,34.709138,ביר הדאג',1348,ביר הדאג',6,62,623,68,NA,2,5146,NA,NA,5.1,NA,280,NA,1714554846,287,624,3450,Bir Hadage,http://gis.cbs.gov.il/Yeshuvim_allyears/start.aspx?stl=1348
BIZZARON,"Bitzaron, Israel",31.7949517,34.7293463,ביצרון,234,ביצרון,6,61,611,33,143,1,1234,1.2,1.2,NA,1935,310,1,1744563380,55,616,3830,Bizzaron,http://gis.cbs.gov.il/Yeshuvim_allyears/start.aspx?stl=234
BU'EINE-NUJEIDAT,"Bu'eine Nujeidat, Israel",32.807711,35.36527,בועיינה-נוג'ידאת,482,בועיינה-נוג'ידאת,2,25,237,99,NA,2,9271,NA,NA,9.3,NA,280,NA,2348274592,215,251,1240,Bu'eine-Nujeidat,http://gis.cbs.gov.il/Yeshuvim_allyears/start.aspx?stl=482
BUQ'ATA,Buq'ata,33.2026572,35.7767723,בוקעאתא,4001,בוקעאתא,2,29,292,99,NA,2,6431,NA,NA,6.4,NA,280,NA,2730078972,1097,256,1270,Buq'ata,http://gis.cbs.gov.il/Yeshuvim_allyears/start.aspx?stl=4001
BURGETA,"Burgata, Israel",32.325972,34.963848,בורגתה,698,בורגתה,4,41,411,16,141,1,1123,1.1,1.1,NA,1949,310,1,1966969241,28,409,5120,Burgeta,http://gis.cbs.gov.il/Yeshuvim_allyears/start.aspx?stl=698
BUSTAN HAGALIL,"Bustan HaGalil, Israel",32.948636,35.08068799999999,בוסתן הגליל,559,בוסתן הגליל,2,24,246,4,241,1,1198,1.2,1.2,NA,1948,310,10,2080476169,7,201,1330,Bustan HaGalil,http://gis.cbs.gov.il/Yeshuvim_allyears/start.aspx?stl=559
DABURIYYA,"Daburiyya, Israel",32.69412,35.368513,דבורייה,489,דבורייה,2,23,237,99,NA,2,10039,NA,NA,10,NA,270,NA,2351473300,163,251,1420,Daburiyya,http://gis.cbs.gov.il/Yeshuvim_allyears/start.aspx?stl=489
DALIYAT AL-KARMEL,"Daliyat al-Karmel, Israel",32.693796,35.055447,דאלית אל-כרמל,494,דאלית אל-כרמל,3,31,311,99,223,2,16998,NA,NA,17,NA,270,NA,2050573325,418,356,1140,Daliyat Al-Karmel,http://gis.cbs.gov.il/Yeshuvim_allyears/start.aspx?stl=494
DEIR AL-ASAD,"Deir al-Asad, Israel",32.93445,35.268394,דייר אל-אסד,490,דייר אל-אסד,2,24,242,99,NA,2,11898,NA,NA,11.9,NA,270,NA,2254376005,467,260,1310,Deir Al-Asad,http://gis.cbs.gov.il/Yeshuvim_allyears/start.aspx?stl=490
DEIR HANNA,"Deir Hanna, Israel",32.862316,35.365253,דייר חנא,492,דייר חנא,2,24,241,99,NA,2,9944,NA,NA,9.9,NA,280,NA,2348075200,226,262,1360,Deir Hanna,http://gis.cbs.gov.il/Yeshuvim_allyears/start.aspx?stl=492
DERIG'AT,"Drijat, Israel",31.301885,35.076793,דריג'את,1349,דריג'את,6,62,623,69,NA,2,1118,NA,NA,1.1,NA,450,NA,2072057882,557,624,3481,Derig'at,http://gis.cbs.gov.il/Yeshuvim_allyears/start.aspx?stl=1349
DIMONA,"Dimona, Israel",31.069419,35.033363,דימונה,2200,דימונה,6,62,626,0,NA,1,33452,33.2,30.2,NA,1955,160,NA,2032855316,463,607,3450,Dimona,http://gis.cbs.gov.il/Yeshuvim_allyears/start.aspx?stl=2200
DOLEV,"Dolev St, Rakefet, Israel",32.8540254,35.2623902,דולב,3747,דולב,7,74,NA,73,NA,1,1331,1.3,1.3,NA,1983,370,11,2126964818,559,711,4354,Dolev,http://gis.cbs.gov.il/Yeshuvim_allyears/start.aspx?stl=3747
EFRAT,Efrat,31.653589,35.149934,אפרת,3650,אפרת,7,76,NA,99,445,1,8658,8.7,8.6,NA,1980,180,NA,2148561889,839,704,4352,Efrat,http://gis.cbs.gov.il/Yeshuvim_allyears/start.aspx?stl=3650
EILABUN,"Eilabun, Israel",32.837949,35.399996,עיילבון,530,עיילבון,2,22,222,99,NA,2,5541,NA,NA,5.5,NA,280,NA,2379074910,172,251,1240,Eilabun,http://gis.cbs.gov.il/Yeshuvim_allyears/start.aspx?stl=530
EIN MAHEL,"Ein Mahil, Israel",32.724295,35.353369,עין מאהל,532,עין מאהל,2,25,237,99,NA,2,12629,NA,NA,12.6,NA,270,NA,2333773645,404,257,1460,Ein Mahel,http://gis.cbs.gov.il/Yeshuvim_allyears/start.aspx?stl=532
EIN NAQQUBA,"Ein Naqquba, Israel",31.79391,35.11968299999999,עין נקובא,521,עין נקובא,1,11,111,26,444,2,3148,NA,NA,3.1,NA,290,NA,2114463339,618,151,6129,Ein Naqquba,http://gis.cbs.gov.il/Yeshuvim_allyears/start.aspx?stl=521
EIN QINIYYE,Ein Qiniyye,33.2366802,35.7313062,עין קנייא,4502,עין קנייא,2,29,291,99,NA,2,1988,NA,NA,2,NA,450,NA,2685979361,795,256,1270,Ein Qiniyye,http://gis.cbs.gov.il/Yeshuvim_allyears/start.aspx?stl=4502
EIN RAFA,"Ein Rafa, Israel",31.790605,35.116514,עין ראפה,514,עין ראפה,1,11,111,26,444,2,1193,NA,NA,1.2,NA,450,NA,2109863306,602,151,6129,Ein Rafa,http://gis.cbs.gov.il/Yeshuvim_allyears/start.aspx?stl=514
EL'AD,"El'ad, Israel",32.04953,34.95075,אלעד,1309,אלעד,4,42,422,0,142,1,45854,45.9,45.8,NA,1998,160,NA,1960566200,122,422,5160,El'ad,http://gis.cbs.gov.il/Yeshuvim_allyears/start.aspx?stl=1309
EL'AZAR,"Elazar, Gush Etzion",31.659676,35.143074,אלעזר,3618,אלעזר,7,76,NA,76,445,1,2568,2.6,2.6,NA,1975,190,NA,2134361878,919,714,4352,El'azar,http://gis.cbs.gov.il/Yeshuvim_allyears/start.aspx?stl=3618
ELAT,"Eilat, Israel",29.557669,34.951925,אילת,2600,אילת,6,62,625,0,NA,1,50072,47.9,41.2,NA,1951,150,NA,1942338515,164,602,3460,Elat,http://gis.cbs.gov.il/Yeshuvim_allyears/start.aspx?stl=2600
ELI,"Eli St, Tira, Israel",32.2285265,34.9551986,עלי,3765,עלי,7,72,NA,73,NA,1,4233,4.2,4.2,NA,1984,190,NA,2253466438,686,711,4354,Eli,http://gis.cbs.gov.il/Yeshuvim_allyears/start.aspx?stl=3765
ELISHAMA,"Elishama, Israel",32.154778,34.930461,אלישמע,841,אלישמע,4,42,421,20,142,1,1206,1.2,1.2,NA,1951,310,1,1934267328,27,417,5140,Elishama,http://gis.cbs.gov.il/Yeshuvim_allyears/start.aspx?stl=841
ELON MORE,Elon Moreh,32.234418,35.331201,אלון מורה,3579,אלון מורה,7,72,NA,72,NA,1,1861,1.9,1.9,NA,1979,370,11,2317568212,661,710,4164,Elon More,http://gis.cbs.gov.il/Yeshuvim_allyears/start.aspx?stl=3579
ELQANA,Elkana,32.110566,35.032054,אלקנה,3560,אלקנה,7,73,NA,99,145,1,3898,3.9,3.9,NA,1977,190,NA,2035666833,228,702,4164,Elqana,http://gis.cbs.gov.il/Yeshuvim_allyears/start.aspx?stl=3560
ELYAKHIN,"Elyakhin, Israel",32.407659,34.925028,אליכין,41,אליכין,4,41,411,99,141,1,3417,3.4,3.4,NA,1950,190,NA,1931870157,31,457,1180,Elyakhin,http://gis.cbs.gov.il/Yeshuvim_allyears/start.aspx?stl=41
EN AYYALA,"Ein Ayala, Israel",32.629963,34.944296,עין איילה,687,עין איילה,3,32,321,15,243,1,1151,1.2,1.1,NA,1949,310,1,1952372612,18,303,1181,En Ayyala,http://gis.cbs.gov.il/Yeshuvim_allyears/start.aspx?stl=687
EN DOR,"Ein Dor, Israel",32.655468,35.416388,עין דור,436,עין דור,2,23,233,9,NA,1,1021,1,1,NA,1948,330,15,2393572912,124,254,1420,En Dor,http://gis.cbs.gov.il/Yeshuvim_allyears/start.aspx?stl=436
EN HABESOR,"Ein HaBesor, Israel",31.280895,34.443446,עין הבשור,1240,עין הבשור,6,62,622,38,NA,1,1179,1.2,1.1,NA,1982,310,1,1468957689,120,651,3430,En HaBesor,http://gis.cbs.gov.il/Yeshuvim_allyears/start.aspx?stl=1240
EN HAMIFRAZ,"Ein HaMifratz, Israel",32.902581,35.09303999999999,עין המפרץ,289,עין המפרץ,2,24,246,4,241,1,1223,1.2,1.2,NA,1938,330,15,2093675650,2,201,1330,En HaMifraz,http://gis.cbs.gov.il/Yeshuvim_allyears/start.aspx?stl=289
EN SARID,"Ein Sarid, Israel",32.274901,34.93418,עין שריד,880,עין שריד,4,41,411,18,141,1,1620,1.6,1.6,NA,1950,350,NA,1941268670,63,412,5120,En Sarid,http://gis.cbs.gov.il/Yeshuvim_allyears/start.aspx?stl=880
EN WERED,"Ein Vered, Israel",32.264467,34.930705,עין ורד,157,עין ורד,4,41,411,18,141,1,1480,1.5,1.5,NA,1930,310,1,1937868568,63,412,5120,En Wered,http://gis.cbs.gov.il/Yeshuvim_allyears/start.aspx?stl=157
EN YA'AQOV,"Derech Aharon 2, Zihron Ya'akov, Israel",32.562768,34.956971,עין יעקב,813,עין יעקב,2,24,243,52,NA,1,1023,1,1,NA,1950,310,1,2217976826,419,255,1320,En Ya'aqov,http://gis.cbs.gov.il/Yeshuvim_allyears/start.aspx?stl=813
ESHTA'OL,"Eshtaol, Israel",31.780385,35.010102,אשתאול,740,אשתאול,1,11,112,26,444,1,1233,1.2,1.2,NA,1949,310,1,2009563206,282,151,7004,Eshta'ol,http://gis.cbs.gov.il/Yeshuvim_allyears/start.aspx?stl=740
EVEN SHEMU'EL,"Even Shmuel, Israel",31.576429,34.762963,אבן שמואל,400,אבן שמואל,6,61,612,34,NA,1,1749,1.7,1.7,NA,1956,350,NA,1775460940,155,631,3820,Even Shemu'el,http://gis.cbs.gov.il/Yeshuvim_allyears/start.aspx?stl=400
EVEN YEHUDA,"Even Yehuda, Israel",32.276648,34.885087,אבן יהודה,182,אבן יהודה,4,41,411,99,141,1,13542,13.5,13.3,NA,1932,170,NA,1894568642,36,457,5120,Even Yehuda,http://gis.cbs.gov.il/Yeshuvim_allyears/start.aspx?stl=182
EZ EFRAYIM,Ets Efraim,32.119403,35.046367,עץ אפרים,3778,עץ אפרים,7,73,NA,72,145,1,2022,2,2,NA,1985,190,NA,2045466960,203,710,4164,Ez Efrayim,http://gis.cbs.gov.il/Yeshuvim_allyears/start.aspx?stl=3778
FASSUTA,"Fassuta, Israel",33.04782,35.308827,פסוטה,535,פסוטה,2,24,244,99,NA,2,3055,NA,NA,3,NA,290,NA,2292977259,567,258,1320,Fassuta,http://gis.cbs.gov.il/Yeshuvim_allyears/start.aspx?stl=535
FUREIDIS,"Fureidis, Israel",32.597351,34.951899,פוריידיס,537,פוריידיס,3,32,321,99,NA,2,12608,NA,NA,12.6,NA,270,NA,1958172264,50,353,1181,Fureidis,http://gis.cbs.gov.il/Yeshuvim_allyears/start.aspx?stl=537
GAN NER,"Gan Ner, Israel",32.528706,35.336254,גן נר,1274,גן נר,2,23,232,8,NA,1,2677,2.7,2.6,NA,1987,190,NA,2319971531,159,204,1420,Gan Ner,http://gis.cbs.gov.il/Yeshuvim_allyears/start.aspx?stl=1274
GAN YAVNE,"Gan Yavne, Israel",31.783056,34.703101,גן יבנה,166,גן יבנה,4,44,441,99,143,1,23097,23,22.3,NA,1931,160,NA,1724763297,39,453,3830,Gan Yavne,http://gis.cbs.gov.il/Yeshuvim_allyears/start.aspx?stl=166
GANNE MODI'IN,"Modi'in St, Kiryat Ono, Israel",32.0620304,34.8481993,גני מודיעין,3823,גני מודיעין,7,74,NA,73,NA,1,2411,2.4,2.4,NA,1996,190,NA,2018064847,NA,711,4354,Ganne Modi'in,http://gis.cbs.gov.il/Yeshuvim_allyears/start.aspx?stl=3823
GANNE TIQWA,"Ganei Tikva, Israel",32.060497,34.873121,גני תקווה,229,גני תקווה,4,42,422,99,132,1,17311,17.3,17.1,NA,1953,170,NA,1883766300,74,455,2370,Ganne Tiqwa,http://gis.cbs.gov.il/Yeshuvim_allyears/start.aspx?stl=229
GEDERA,"Gedera, Israel",31.8123014,34.77701920000001,גדרה,2550,גדרה,4,44,441,99,143,1,27046,26.9,26.4,NA,1884,160,NA,1792763567,57,453,5230,Gedera,http://gis.cbs.gov.il/Yeshuvim_allyears/start.aspx?stl=2550
GESHER HAZIW,"Gesher HaZiv, Israel",33.040532,35.110563,גשר הזיו,574,גשר הזיו,2,24,245,4,241,1,1616,1.6,1.6,NA,1949,330,15,2108077155,20,201,1350,Gesher HaZiw,http://gis.cbs.gov.il/Yeshuvim_allyears/start.aspx?stl=574
GEVA  KARMEL,"Geva Carmel, Israel",32.662163,34.954078,גבע כרמל,683,גבע כרמל,3,32,321,15,243,1,1182,1.2,1.2,NA,1949,310,1,1960272983,22,303,1181,Geva  Karmel,http://gis.cbs.gov.il/Yeshuvim_allyears/start.aspx?stl=683
GEVA BINYAMIN,Geva Binyamin,31.849999,35.273853,גבע בנימין,3763,גבע בנימין,7,74,NA,73,445,1,5278,5.3,5.1,NA,1984,180,NA,2259863962,638,711,4354,Geva Binyamin,http://gis.cbs.gov.il/Yeshuvim_allyears/start.aspx?stl=3763
GHAJAR,Ghajar,33.272607,35.623637,ע'ג'ר,4501,ע'ג'ר,2,29,292,99,NA,2,2517,NA,NA,2.5,NA,290,NA,2586479728,282,256,1210,Ghajar,http://gis.cbs.gov.il/Yeshuvim_allyears/start.aspx?stl=4501
GILAT,"Gilat, Israel",31.326321,34.648934,גילת,736,גילת,6,62,622,42,344,1,1373,1.4,1.4,NA,1949,310,1,1668758193,136,651,3430,Gilat,http://gis.cbs.gov.il/Yeshuvim_allyears/start.aspx?stl=736
GILON,"Gilon, Israel",32.904338,35.232191,גילון,1204,גילון,2,24,242,56,241,1,1048,1,1,NA,1980,370,9,2224775646,302,205,1310,Gilon,http://gis.cbs.gov.il/Yeshuvim_allyears/start.aspx?stl=1204
GIMZO,"Gimzo, Israel",31.927217,34.941128,גמזו,745,גמזו,4,43,431,25,142,1,1156,1.2,1.2,NA,1950,310,8,1945464834,105,424,5280,Gimzo,http://gis.cbs.gov.il/Yeshuvim_allyears/start.aspx?stl=745
GIV'AT AVNI,"Giv'at Avni, Israel",32.775382,35.436154,גבעת אבני,1293,גבעת אבני,2,22,222,3,NA,1,2041,2,2,NA,1991,190,NA,2414274234,282,206,1240,Giv'at Avni,http://gis.cbs.gov.il/Yeshuvim_allyears/start.aspx?stl=1293
GIV'AT BRENNER,"Givat Brenner, Israel",31.86661,34.802254,גבעת ברנר,147,גבעת ברנר,4,44,441,28,143,1,2680,2.7,2.6,NA,1928,193,NA,1813164156,59,456,5230,Giv'at Brenner,http://gis.cbs.gov.il/Yeshuvim_allyears/start.aspx?stl=147
GIV'AT ELA,"Givat Ela, Israel",32.722007,35.244822,גבעת אלה,1288,גבעת אלה,2,23,237,9,NA,1,1970,2,2,NA,1988,370,13,2232373635,262,254,1440,Giv'at Ela,http://gis.cbs.gov.il/Yeshuvim_allyears/start.aspx?stl=1288
GIV'AT HAYYIM (IHUD),"Givat Haim, Israel",32.396745,34.932978,גבעת חיים (איחוד),2018,גבעת חיים (איחוד),4,41,411,16,141,1,1064,1.1,1,NA,1932,330,15,1938570064,22,409,5120,Giv'at Hayyim (Ihud),http://gis.cbs.gov.il/Yeshuvim_allyears/start.aspx?stl=2018
GIV'AT SHEMU'EL,"Giv'at Shmuel, Israel",32.077299,34.849206,גבעת שמואל,681,גבעת שמואל,4,42,422,0,132,1,25544,25.5,25.2,NA,1942,160,NA,1860066489,48,427,2370,Giv'at Shemu'el,http://gis.cbs.gov.il/Yeshuvim_allyears/start.aspx?stl=681
GIV'AT YE'ARIM,"Giv'at Ye'arim, Israel",31.786089,35.09277,גבעת יערים,787,גבעת יערים,1,11,111,26,444,1,1465,1.5,1.4,NA,1950,310,1,2088063269,694,151,7004,Giv'at Ye'arim,http://gis.cbs.gov.il/Yeshuvim_allyears/start.aspx?stl=787
GIV'AT ZE'EV,Giv'at Ze'ev,31.861189,35.167252,גבעת זאב,3730,גבעת זאב,7,74,NA,99,445,1,16865,16.8,16.7,NA,1983,170,NA,2160164047,731,705,6180,Giv'at Ze'ev,http://gis.cbs.gov.il/Yeshuvim_allyears/start.aspx?stl=3730
GIV'ATAYIM,"Giv'atayim, Israel",32.072176,34.808871,גבעתיים,6300,גבעתיים,5,52,512,0,122,1,58508,58.5,56.7,NA,1922,150,NA,1822066430,42,503,2314,Giv'atayim,http://gis.cbs.gov.il/Yeshuvim_allyears/start.aspx?stl=6300
GIV'ON HAHADASHA,Giv'on HaHadasha,31.848896,35.159029,גבעון החדשה,3644,גבעון החדשה,7,74,NA,73,445,1,1135,1.1,1,NA,1980,370,11,2150963947,795,711,6180,Giv'on HaHadasha,http://gis.cbs.gov.il/Yeshuvim_allyears/start.aspx?stl=3644
HADERA,"Hadera, Israel",32.4340458,34.9196518,חדרה,6500,חדרה,3,32,324,0,NA,1,91707,90.9,84.9,NA,1890,150,NA,1925670466,19,302,1180,Hadera,http://gis.cbs.gov.il/Yeshuvim_allyears/start.aspx?stl=6500
HAGOR,"Hagor, Israel",32.138591,34.947614,חגור,717,חגור,4,42,421,20,142,1,1158,1.2,1.1,NA,1949,310,1,1951667158,34,417,5150,Hagor,http://gis.cbs.gov.il/Yeshuvim_allyears/start.aspx?stl=717
HAIFA,"Haifa, Israel",32.7940463,34.989571,חיפה,4e3,חיפה,3,31,311,0,210,4,279591,248.4,218.2,31.2,ותיק,130,NA,2011274546,98,304,1140,Haifa,http://gis.cbs.gov.il/Yeshuvim_allyears/start.aspx?stl=4000
HALLAMISH,Halamish,32.008313,35.128876,חלמיש,3573,חלמיש,7,74,NA,73,145,1,1328,1.3,1.3,NA,1977,370,11,2120165696,559,711,4354,Hallamish,http://gis.cbs.gov.il/Yeshuvim_allyears/start.aspx?stl=3573
HAMAM,"Hamaam, Israel",32.828399,35.491721,חמאם,993,חמאם,2,22,221,65,NA,2,1430,NA,NA,1.4,NA,450,NA,2461874838,-99,251,1240,Hamam,http://gis.cbs.gov.il/Yeshuvim_allyears/start.aspx?stl=993
HAR ADAR,Har Adar,31.824501,35.12966,הר אדר,3769,הר אדר,7,74,NA,99,445,1,3980,4,3.9,NA,1986,190,NA,2123263708,825,720,6129,Har Adar,http://gis.cbs.gov.il/Yeshuvim_allyears/start.aspx?stl=3769
HAR GILLO,Har Gillo,31.722058,35.171491,הר גילה,3603,הר גילה,7,76,NA,76,445,1,1570,1.5,1.5,NA,1972,370,19,2164062544,917,714,6130,Har Gillo,http://gis.cbs.gov.il/Yeshuvim_allyears/start.aspx?stl=3603
HARDUF,"Harduf, Israel",32.763717,35.174663,הרדוף,1249,הרדוף,2,23,237,9,242,1,1110,1.1,1,NA,1982,330,15,2163874111,172,254,1340,Harduf,http://gis.cbs.gov.il/Yeshuvim_allyears/start.aspx?stl=1249
HARISH,"Harish, Israel, Israel",32.4618771,35.0455828,חריש,1247,חריש,3,32,323,99,NA,1,1376,1.3,1.3,NA,1982,350,NA,2047870720,115,307,1450,Harish,http://gis.cbs.gov.il/Yeshuvim_allyears/start.aspx?stl=1247
HASHMONA'IM,Hashmona'im,31.93263099999999,35.023269,חשמונאים,3770,חשמונאים,7,74,NA,73,NA,1,2826,2.8,2.8,NA,1985,190,NA,2023664872,252,711,4354,Hashmona'im,http://gis.cbs.gov.il/Yeshuvim_allyears/start.aspx?stl=3770
HASPIN,Haspin,32.8456305,35.7929907,חספין,4005,חספין,2,29,294,71,NA,1,1877,1.9,1.9,NA,1973,370,NA,2746275023,419,219,1270,Haspin,http://gis.cbs.gov.il/Yeshuvim_allyears/start.aspx?stl=4005
HAZAV,"Hatsav, Israel",31.780095,34.770572,חצב,700,חצב,6,61,611,33,143,1,1447,1.4,1.4,NA,1949,310,1,1782863213,64,616,3830,Hazav,http://gis.cbs.gov.il/Yeshuvim_allyears/start.aspx?stl=700
HAZOR HAGELILIT,"Hatzor HaGlilit, Israel",32.980382,35.543548,חצור הגלילית,2034,חצור הגלילית,2,21,213,99,NA,1,9004,9,8.8,NA,1953,180,NA,2511576527,438,259,1220,Hazor HaGelilit,http://gis.cbs.gov.il/Yeshuvim_allyears/start.aspx?stl=2034
HEMED,"Hemed, Israel",32.017992,34.841265,חמד,801,חמד,4,43,432,40,133,1,1173,1.2,1.2,NA,1950,310,2,1851165842,26,425,5210,Hemed,http://gis.cbs.gov.il/Yeshuvim_allyears/start.aspx?stl=801
HERUT,"Herut, Israel",32.240973,34.914127,חירות,162,חירות,4,41,411,18,141,1,1261,1.3,1.2,NA,1930,310,1,1921668301,60,412,5120,Herut,http://gis.cbs.gov.il/Yeshuvim_allyears/start.aspx?stl=162
HERZLIYYA,"Herzliya, Israel",32.162413,34.844675,הרצלייה,6400,הרצלייה,5,51,511,0,121,1,93116,93,89,NA,1924,150,NA,1845467522,39,504,2360,Herzliyya,http://gis.cbs.gov.il/Yeshuvim_allyears/start.aspx?stl=6400
HINNANIT,Hinanit,32.480891,35.173181,חיננית,3643,חיננית,7,71,NA,72,NA,1,1164,1.2,1,NA,1981,370,13,2160870967,392,710,4164,Hinnanit,http://gis.cbs.gov.il/Yeshuvim_allyears/start.aspx?stl=3643
HOD HASHARON,"Hod Hasharon, Israel",32.149961,34.8838788,הוד השרון,9700,הוד השרון,4,42,421,0,131,1,58914,58.9,57.7,NA,1924,150,NA,1901667325,37,423,5140,Hod HaSharon,http://gis.cbs.gov.il/Yeshuvim_allyears/start.aspx?stl=9700
HOLON,"Holon, Israel",32.015833,34.787384,חולון,6600,חולון,5,53,513,0,123,1,190838,190.6,176.6,NA,1940,140,NA,1792765826,34,505,2200,Holon,http://gis.cbs.gov.il/Yeshuvim_allyears/start.aspx?stl=6600
HOSEN,"Hosen, Israel",32.997699,35.298723,חוסן,662,חוסן,2,24,243,52,NA,1,1086,1.1,1.1,NA,1949,310,9,2281476697,475,255,1320,Hosen,http://gis.cbs.gov.il/Yeshuvim_allyears/start.aspx?stl=662
HOSHA'AYA,"Hoshaya, Israel",32.757927,35.29522499999999,הושעיה,1186,הושעיה,2,23,237,9,NA,1,1940,1.9,1.9,NA,1981,370,2,2276574043,224,254,1410,Hosha'aya,http://gis.cbs.gov.il/Yeshuvim_allyears/start.aspx?stl=1186
HURA,"Hura, Israel",31.300399,34.935688,חורה,1303,חורה,6,62,623,99,342,2,19981,NA,NA,20,NA,270,NA,1938757841,416,652,3481,Hura,http://gis.cbs.gov.il/Yeshuvim_allyears/start.aspx?stl=1303
HURFEISH,"Hurfeish, Israel",33.016688,35.347106,חורפיש,496,חורפיש,2,24,244,99,NA,2,6160,NA,NA,6.2,NA,280,NA,2326776914,670,258,1320,Hurfeish,http://gis.cbs.gov.il/Yeshuvim_allyears/start.aspx?stl=496
I'BILLIN,"I'billin, Israel",32.821799,35.19012,אעבלין,529,אעבלין,2,24,241,99,241,2,12830,NA,NA,12.8,NA,270,NA,2177374794,87,261,1340,I'billin,http://gis.cbs.gov.il/Yeshuvim_allyears/start.aspx?stl=529
IBTIN,"Ibtin, Israel",32.759963,35.114601,אבטין,652,אבטין,3,31,311,12,222,2,2748,NA,NA,2.7,NA,290,NA,2108874076,49,301,1160,Ibtin,http://gis.cbs.gov.il/Yeshuvim_allyears/start.aspx?stl=652
IKSAL,"Iksal, Israel",32.682085,35.320743,אכסאל,478,אכסאל,2,23,237,99,NA,2,13961,NA,NA,14,NA,270,NA,2307473196,125,257,1420,Iksal,http://gis.cbs.gov.il/Yeshuvim_allyears/start.aspx?stl=478
ILUT,"Ilut, Israel",32.717249,35.261482,עילוט,511,עילוט,2,25,237,99,NA,2,7727,NA,NA,7.7,NA,280,NA,2247873587,274,257,1410,Ilut,http://gis.cbs.gov.il/Yeshuvim_allyears/start.aspx?stl=511
IMMANU'EL,Immanuel,32.160688,35.136036,עמנואל,3660,עמנואל,7,73,NA,99,145,1,3309,3.3,3.3,NA,1983,190,NA,2130867423,362,708,4164,Immanu'el,http://gis.cbs.gov.il/Yeshuvim_allyears/start.aspx?stl=3660
ISIFYA,"Isfiya, Israel",32.720737,35.059087,עספיא,534,עספיא,3,31,311,99,223,2,11942,NA,NA,11.8,NA,270,NA,2063973585,472,356,1140,Isifya,http://gis.cbs.gov.il/Yeshuvim_allyears/start.aspx?stl=534
ITAMAR,Itamar,32.173869,35.308029,איתמר,3762,איתמר,7,72,NA,72,NA,1,1151,1.2,1.1,NA,1984,370,11,2291867563,613,710,4164,Itamar,http://gis.cbs.gov.il/Yeshuvim_allyears/start.aspx?stl=3762
JALJULYE,"Jaljulia, Israel",32.1524568,34.9539749,ג'לג'וליה,627,ג'לג'וליה,4,42,421,99,142,2,9618,NA,NA,9.5,NA,280,NA,1957567326,37,451,5150,Jaljulye,http://gis.cbs.gov.il/Yeshuvim_allyears/start.aspx?stl=627
JATT,"Jat, Israel",32.39693,35.035914,ג'ת,628,ג'ת,3,32,324,99,NA,2,11434,NA,NA,11.4,NA,270,NA,2036670061,57,354,1450,Jatt,http://gis.cbs.gov.il/Yeshuvim_allyears/start.aspx?stl=628
JERUSALEM,"Jerusalem, Israel",31.768319,35.21371,ירושלים,3e3,ירושלים,1,11,111,0,410,4,882652,550.1,536.6,332.6,ותיק,120,NA,NA,715,101,6120,Jerusalem,http://gis.cbs.gov.il/Yeshuvim_allyears/start.aspx?stl=3000
JISH(GUSH HALAV),"Jish, Israel",33.021266,35.447949,ג'ש (גוש חלב),487,ג'ש (גוש חלב),2,21,212,99,NA,2,3078,NA,NA,3.1,NA,290,NA,2420276976,745,258,1230,Jish(Gush Halav),http://gis.cbs.gov.il/Yeshuvim_allyears/start.aspx?stl=487
JISR AZ-ZARQA,"Jisr az-Zarqa, Israel",32.536262,34.911569,ג'סר א-זרקא,541,ג'סר א-זרקא,3,32,324,99,NA,2,14207,NA,NA,14.2,NA,270,NA,1919971586,11,353,1181,Jisr Az-Zarqa,http://gis.cbs.gov.il/Yeshuvim_allyears/start.aspx?stl=541
JUDEIDE-MAKER,"Jadeidi-Makr, Israel",32.928656,35.150573,ג'דיידה-מכר,1292,ג'דיידה-מכר,2,24,246,99,241,2,20257,NA,NA,20.2,NA,260,NA,2140875939,38,252,1330,Judeide-Maker,http://gis.cbs.gov.il/Yeshuvim_allyears/start.aspx?stl=1292
JULIS,"Julis, Israel",32.94498,35.184243,ג'ולס,485,ג'ולס,2,24,243,99,NA,2,6209,NA,NA,6.2,NA,280,NA,2175076079,110,252,1330,Julis,http://gis.cbs.gov.il/Yeshuvim_allyears/start.aspx?stl=485
KA'ABIYYE-TABBASH-HAJAJRE,"Ka'abiyye-Tabbash-Hajajre, Israel",32.750389,35.184,כעביה-טבאש-חג'אג'רה,978,כעביה-טבאש-חג'אג'רה,2,25,237,99,242,2,5106,NA,NA,5.1,NA,280,NA,2176973945,163,254,1440,Ka'abiyye-Tabbash-Hajajre,http://gis.cbs.gov.il/Yeshuvim_allyears/start.aspx?stl=978
KABRI,"Kabri, Israel",33.020985,35.147007,כברי,576,כברי,2,24,245,4,NA,1,1031,1,1,NA,1949,330,15,2141876954,96,201,1350,Kabri,http://gis.cbs.gov.il/Yeshuvim_allyears/start.aspx?stl=576
KABUL,"Kabul, Israel",32.8699737,35.2054376,כאבול,504,כאבול,2,24,241,99,241,2,13422,NA,NA,13.4,NA,270,NA,2197475272,74,263,1340,Kabul,http://gis.cbs.gov.il/Yeshuvim_allyears/start.aspx?stl=504
KAFAR BARA,"Kafr Bara, Israel",32.130911,34.970108,כפר ברא,633,כפר ברא,4,42,422,99,142,2,3398,NA,NA,3.4,NA,290,NA,1973967086,111,451,5150,Kafar Bara,http://gis.cbs.gov.il/Yeshuvim_allyears/start.aspx?stl=633
KAFAR KAMA,"Kfar Kama, Israel",32.721105,35.442834,כפר כמא,508,כפר כמא,2,22,222,99,NA,2,3240,NA,NA,3.2,NA,290,NA,2415873637,209,251,1240,Kafar Kama,http://gis.cbs.gov.il/Yeshuvim_allyears/start.aspx?stl=508
KAFAR KANNA,"Kafr Kanna, Israel",32.7481978,35.3438402,כפר כנא,509,כפר כנא,2,25,237,99,NA,2,21547,NA,NA,21.5,NA,260,NA,2323673912,229,257,1410,Kafar Kanna,http://gis.cbs.gov.il/Yeshuvim_allyears/start.aspx?stl=509
KAFAR MANDA,"Kafr Manda, Israel",32.81236,35.258613,כפר מנדא,510,כפר מנדא,2,24,241,99,NA,2,18844,NA,NA,18.8,NA,270,NA,2246874616,179,261,1360,Kafar Manda,http://gis.cbs.gov.il/Yeshuvim_allyears/start.aspx?stl=510
KAFAR MISR,"Kafr Misr, Israel",32.647371,35.42155100000001,כפר מצר,512,כפר מצר,2,25,233,66,NA,2,2634,NA,NA,2.6,NA,290,NA,2398672791,111,251,1420,Kafar Misr,http://gis.cbs.gov.il/Yeshuvim_allyears/start.aspx?stl=512
KAFAR QARA,"Kafr Qara, Israel",32.505518,35.054251,כפר קרע,654,כפר קרע,3,32,323,99,NA,2,17967,NA,NA,17.9,NA,270,NA,2051371242,109,354,1450,Kafar Qara,http://gis.cbs.gov.il/Yeshuvim_allyears/start.aspx?stl=654
KAFAR QASEM,"Kafr Qasim, Israel",32.114093,34.972767,כפר קאסם,634,כפר קאסם,4,42,422,0,142,2,22265,NA,NA,22.2,NA,260,NA,1977566907,81,451,5150,Kafar Qasem,http://gis.cbs.gov.il/Yeshuvim_allyears/start.aspx?stl=634
KAFAR YASIF,"Kafr Yasif, Israel",32.9520318,35.1599957,כפר יאסיף,507,כפר יאסיף,2,24,245,99,NA,2,9700,NA,NA,9.7,NA,280,NA,2156076212,58,252,1330,Kafar Yasif,http://gis.cbs.gov.il/Yeshuvim_allyears/start.aspx?stl=507
KAMANE,"Kamanneh, Israel",32.909311,35.336928,כמאנה,1331,כמאנה,2,24,242,56,NA,2,1429,NA,NA,1.4,NA,450,NA,2331475760,502,205,1310,Kamane,http://gis.cbs.gov.il/Yeshuvim_allyears/start.aspx?stl=1331
KAMMON,"Kamon, Israel",32.909119,35.360916,כמון,1201,כמון,2,24,242,56,NA,1,1364,1.4,1.3,NA,1980,370,7,2338975727,561,205,1310,Kammon,http://gis.cbs.gov.il/Yeshuvim_allyears/start.aspx?stl=1201
KAOKAB ABU AL-HIJA,"Kaukab Abu al-Hija, Israel",32.831888,35.248701,כאוכב אבו אל-היג'א,505,כאוכב אבו אל-היג'א,2,24,241,99,241,2,3387,NA,NA,3.4,NA,290,NA,2235974843,369,261,1360,Kaokab Abu Al-Hija,http://gis.cbs.gov.il/Yeshuvim_allyears/start.aspx?stl=505
KARME YOSEF,"Karmei Yosef, Israel",31.848024,34.921347,כרמי יוסף,1264,כרמי יוסף,4,43,432,30,143,1,1691,1.7,1.7,NA,1984,350,NA,1925663946,222,426,5220,Karme Yosef,http://gis.cbs.gov.il/Yeshuvim_allyears/start.aspx?stl=1264
KARME ZUR,"Karm AlJabali St, Tayibe, Israel",32.2623877,35.0059826,כרמי צור,3766,כרמי צור,7,77,NA,76,NA,1,1047,1,1,NA,1984,370,2,2095861294,943,714,4352,Karme Zur,http://gis.cbs.gov.il/Yeshuvim_allyears/start.aspx?stl=3766
KARMI'EL,"Karmiel, Israel",32.914671,35.292417,כרמיאל,1139,כרמיאל,2,24,242,0,NA,1,45300,44,37.4,NA,1964,160,NA,2276275741,270,208,1310,Karmi'el,http://gis.cbs.gov.il/Yeshuvim_allyears/start.aspx?stl=1139
KEFAR ADUMMIM,Kfar Adumim,31.827216,35.337189,כפר אדומים,3638,כפר אדומים,7,74,NA,73,445,1,4271,4.3,4.2,NA,1979,190,NA,2327163618,279,711,4355,Kefar Adummim,http://gis.cbs.gov.il/Yeshuvim_allyears/start.aspx?stl=3638
KEFAR BILU,"Kfar Bilu, Israel",31.870475,34.826734,"כפר ביל""ו",177,"כפר ביל""ו",4,44,441,30,143,1,1300,1.3,1.3,NA,1932,310,1,1836164227,63,426,5230,Kefar Bilu,http://gis.cbs.gov.il/Yeshuvim_allyears/start.aspx?stl=177
KEFAR EZYON,Kfar Ezion,31.649486,35.115234,כפר עציון,3488,כפר עציון,7,76,NA,76,445,1,1099,1.1,1.1,NA,1967,330,3,2109961749,934,714,4352,Kefar Ezyon,http://gis.cbs.gov.il/Yeshuvim_allyears/start.aspx?stl=3488
KEFAR HABAD,"Kfar Habad, Israel",31.990144,34.849103,"כפר חב""ד",696,"כפר חב""ד",4,43,432,40,133,1,6021,6,6,NA,1949,180,NA,1859965527,40,425,5210,Kefar Habad,http://gis.cbs.gov.il/Yeshuvim_allyears/start.aspx?stl=696
KEFAR HANAGID,"Kfar HaNagid, Israel",31.887134,34.748725,כפר הנגיד,582,כפר הנגיד,4,44,442,27,143,1,1219,1.2,1.2,NA,1949,310,1,1764164394,20,456,5230,Kefar HaNagid,http://gis.cbs.gov.il/Yeshuvim_allyears/start.aspx?stl=582
KEFAR HAORANIM,Kfar Ha-Oranim,31.919928,35.036911,כפר האורנים,3796,כפר האורנים,7,74,NA,73,NA,1,2678,2.7,2.7,NA,1998,190,NA,2036864739,300,711,4354,Kefar HaOranim,http://gis.cbs.gov.il/Yeshuvim_allyears/start.aspx?stl=3796
KEFAR HARO'E,"Kfar Haroeh, Israel",32.391037,34.910917,"כפר הרא""ה",217,"כפר הרא""ה",4,41,411,16,141,1,1503,1.5,1.5,NA,1934,310,2,1919269967,23,409,5120,Kefar HaRo'e,http://gis.cbs.gov.il/Yeshuvim_allyears/start.aspx?stl=217
KEFAR HESS,"Kfar Hess, Israel",32.247721,34.935137,כפר הס,187,כפר הס,4,41,411,18,141,1,1602,1.6,1.6,NA,1933,310,1,1940368370,74,412,5120,Kefar Hess,http://gis.cbs.gov.il/Yeshuvim_allyears/start.aspx?stl=187
KEFAR MENAHEM,"Kfar Menahem, Israel",31.732077,34.835079,כפר מנחם,274,כפר מנחם,6,61,611,35,NA,1,1373,1.4,1.3,NA,1937,330,15,1842562641,110,632,3830,Kefar Menahem,http://gis.cbs.gov.il/Yeshuvim_allyears/start.aspx?stl=274
KEFAR NETTER,"Kfar Netter, Israel",32.271928,34.871979,כפר נטר,316,כפר נטר,4,41,411,19,141,1,1226,1.2,1.2,NA,1939,310,10,1881168692,24,401,5120,Kefar Netter,http://gis.cbs.gov.il/Yeshuvim_allyears/start.aspx?stl=316
KEFAR PINES,"Kfar Pines, Israel",32.482717,35.002063,כפר פינס,189,כפר פינס,3,32,324,14,NA,1,1019,1,1,NA,1933,310,2,2004670999,60,351,1180,Kefar Pines,http://gis.cbs.gov.il/Yeshuvim_allyears/start.aspx?stl=189
KEFAR ROSH HANIQRA,"Rosh HaNikra, Israel",33.08609,35.113455,כפר ראש הנקרה,579,כפר ראש הנקרה,2,24,245,4,NA,1,1349,1.3,1.3,NA,1949,330,15,2109877677,33,201,1350,Kefar Rosh HaNiqra,http://gis.cbs.gov.il/Yeshuvim_allyears/start.aspx?stl=579
KEFAR SAVA,"Kefar Sava, Israel",32.178195,34.90761,כפר סבא,6900,כפר סבא,4,42,421,0,131,1,98981,98.8,95.3,NA,1903,150,NA,1919567640,52,405,5140,Kefar Sava,http://gis.cbs.gov.il/Yeshuvim_allyears/start.aspx?stl=6900
KEFAR SHEMARYAHU,"Kfar Shmaryahu, Israel",32.187123,34.823124,כפר שמריהו,267,כפר שמריהו,5,51,511,99,121,1,1911,1.9,1.8,NA,1937,350,NA,1833067703,31,504,2360,Kefar Shemaryahu,http://gis.cbs.gov.il/Yeshuvim_allyears/start.aspx?stl=267
KEFAR SIRKIN,"Kfar Sirkin, Israel",32.076684,34.922763,כפר סירקין,249,כפר סירקין,4,42,422,20,142,1,1377,1.4,1.4,NA,1936,310,NA,1930166493,41,417,5130,Kefar Sirkin,http://gis.cbs.gov.il/Yeshuvim_allyears/start.aspx?stl=249
KEFAR TAPPUAH,Kfar Tapuach,32.117973,35.249829,כפר תפוח,3572,כפר תפוח,7,73,NA,72,NA,1,1071,1.1,1.1,NA,1978,370,2,2238466944,653,710,4164,Kefar Tappuah,http://gis.cbs.gov.il/Yeshuvim_allyears/start.aspx?stl=3572
KEFAR TAVOR,"Kfar Tavor, Israel",32.687346,35.419972,כפר תבור,47,כפר תבור,2,22,222,99,NA,1,3983,4,3.9,NA,1901,190,NA,2397473249,102,251,1420,Kefar Tavor,http://gis.cbs.gov.il/Yeshuvim_allyears/start.aspx?stl=47
KEFAR VITKIN,"Kfar Vitkin, Israel",32.380541,34.875308,כפר ויתקין,190,כפר ויתקין,4,41,411,16,141,1,2003,2,2,NA,1933,191,NA,1887369867,14,409,5120,Kefar Vitkin,http://gis.cbs.gov.il/Yeshuvim_allyears/start.aspx?stl=190
KEFAR WARBURG,"Kfar Warburg, Israel",31.718747,34.72868,כפר ורבורג,320,כפר ורבורג,6,61,611,33,143,1,1120,1.1,1.1,NA,1939,310,1,1741662526,54,616,3830,Kefar Warburg,http://gis.cbs.gov.il/Yeshuvim_allyears/start.aspx?stl=320
KEFAR WERADIM,"Kfar Vradim, Israel",32.995088,35.269101,כפר ורדים,1263,כפר ורדים,2,24,243,99,NA,1,5556,5.5,5.3,NA,1984,180,NA,2255276677,533,255,1320,Kefar Weradim,http://gis.cbs.gov.il/Yeshuvim_allyears/start.aspx?stl=1263
KEFAR YEHEZQEL,"Kfar Yehezkel, Israel",32.566949,35.360888,כפר יחזקאל,85,כפר יחזקאל,2,23,232,8,NA,1,1138,1.1,1.1,NA,1921,310,1,2340471922,5,204,1420,Kefar Yehezqel,http://gis.cbs.gov.il/Yeshuvim_allyears/start.aspx?stl=85
KEFAR YEHOSHUA,"Kfar Yehoshua, Israel",32.681639,35.151976,כפר יהושע,140,כפר יהושע,2,23,235,9,NA,1,1152,1.2,1.1,NA,1927,310,1,2145773196,47,254,1440,Kefar Yehoshua,http://gis.cbs.gov.il/Yeshuvim_allyears/start.aspx?stl=140
KEFAR YONA,"Kfar Yona, Israel",32.317719,34.933615,כפר יונה,168,כפר יונה,4,41,411,0,141,1,22254,22.2,21.7,NA,1932,160,NA,1937969133,42,457,5120,Kefar Yona,http://gis.cbs.gov.il/Yeshuvim_allyears/start.aspx?stl=168
KISRA-SUMEI,"Kisra-Sumei, Israel",32.97232,35.298528,כסרא-סמיע,1296,כסרא-סמיע,2,24,243,99,NA,2,8342,NA,NA,8.3,NA,280,NA,2287976387,624,255,1320,Kisra-Sumei,http://gis.cbs.gov.il/Yeshuvim_allyears/start.aspx?stl=1296
KOKHAV HASHAHAR,Kohav HaShahar,31.960264,35.349421,כוכב השחר,3564,כוכב השחר,7,74,NA,73,445,1,1985,2,2,NA,1977,370,11,2330765179,577,711,4354,Kokhav HaShahar,http://gis.cbs.gov.il/Yeshuvim_allyears/start.aspx?stl=3564
KOKHAV MIKHA'EL,"Kokhav Michael, Israel",31.631482,34.667794,כוכב מיכאל,824,כוכב מיכאל,6,61,614,36,NA,1,1010,1,1,NA,1950,310,1,1686861527,95,633,3840,Kokhav Mikha'el,http://gis.cbs.gov.il/Yeshuvim_allyears/start.aspx?stl=824
KOKHAV YA'AQOV,Kokhav Ya'akov,31.880152,35.242773,כוכב יעקב,3779,כוכב יעקב,7,74,NA,73,445,1,7394,7.4,7.4,NA,1985,180,NA,2230164305,758,711,4354,Kokhav Ya'aqov,http://gis.cbs.gov.il/Yeshuvim_allyears/start.aspx?stl=3779
KOKHAV YA'IR,"Kokhav Ya'ir Tzur Yigal, Israel",32.220922,34.992405,כוכב יאיר,1224,כוכב יאיר,4,42,421,99,141,1,9007,9,8.9,NA,1981,180,NA,1997868091,95,455,5150,Kokhav Ya'ir,http://gis.cbs.gov.il/Yeshuvim_allyears/start.aspx?stl=1224
KUSEIFE,"Kuseife, Israel",31.249246,35.083681,כסיפה,1059,כסיפה,6,62,623,99,NA,2,19718,NA,NA,19.7,NA,270,NA,2082157245,465,652,3481,Kuseife,http://gis.cbs.gov.il/Yeshuvim_allyears/start.aspx?stl=1059
LAPPID,Lapid,31.917522,35.032191,לפיד,1310,לפיד,4,43,431,25,142,1,2520,2.5,2.5,NA,1996,190,NA,2032064717,268,424,5290,Lappid,http://gis.cbs.gov.il/Yeshuvim_allyears/start.aspx?stl=1310
LAQYE,"Kaufmann St 6, Tel Aviv-Yafo, 68012, Israel",32.0641034,34.7622165,לקיה,1060,לקיה,6,62,623,99,341,2,12285,NA,NA,12.3,NA,270,NA,1873558141,396,652,3481,Laqye,http://gis.cbs.gov.il/Yeshuvim_allyears/start.aspx?stl=1060
LEHAVIM,"Lehavim, Israel",31.373835,34.816952,להבים,1271,להבים,6,62,623,99,341,1,6444,6.3,6.2,NA,1985,180,NA,1822758650,310,619,3485,Lehavim,http://gis.cbs.gov.il/Yeshuvim_allyears/start.aspx?stl=1271
LOD,"Lod, Israel",31.951014,34.888075,לוד,7e3,לוד,4,43,432,0,133,4,73608,51.5,45.7,22.1,1948,150,NA,1895665096,57,406,5280,Lod,http://gis.cbs.gov.il/Yeshuvim_allyears/start.aspx?stl=7000
MA'AGAN MIKHA'EL,"Ma'agan Michael, Israel",32.55871,34.917816,מעגן מיכאל,694,מעגן מיכאל,3,32,321,15,NA,1,1907,1.9,1.8,NA,1949,330,15,1923671802,11,303,1181,Ma'agan Mikha'el,http://gis.cbs.gov.il/Yeshuvim_allyears/start.aspx?stl=694
MA'ALE ADUMMIM,Ma'ale Adumim,31.777369,35.297955,מעלה אדומים,3616,מעלה אדומים,7,76,NA,0,445,1,37670,37.6,36.4,NA,1975,160,NA,2290463187,330,706,4355,Ma'ale Adummim,http://gis.cbs.gov.il/Yeshuvim_allyears/start.aspx?stl=3616
MA'ALE EFRAYIM,Ma'ale Efraim,32.071304,35.4039,מעלה אפרים,3608,מעלה אפרים,7,75,NA,99,NA,1,1209,1.2,1.1,NA,1970,350,NA,2382866422,178,707,4164,Ma'ale Efrayim,http://gis.cbs.gov.il/Yeshuvim_allyears/start.aspx?stl=3608
MA'ALE IRON,"Ma'ale Iron, Israel",32.554128,35.182499,מעלה עירון,1327,מעלה עירון,3,32,323,99,NA,2,14308,NA,NA,14.3,NA,270,NA,2147171756,249,354,1470,Ma'ale Iron,http://gis.cbs.gov.il/Yeshuvim_allyears/start.aspx?stl=1327
MA'ALE MIKHMAS,"Gdud Mikhmas St, Jerusalem",31.8273388,35.2434494,מעלה מכמש,3651,מעלה מכמש,7,74,NA,73,445,1,1323,1.3,1.3,NA,1981,370,11,2290664293,585,711,4354,Ma'ale Mikhmas,http://gis.cbs.gov.il/Yeshuvim_allyears/start.aspx?stl=3651
MA'ALE SHOMERON,Ma'ale Shomron,32.165406,35.069744,מעלה שומרון,3637,מעלה שומרון,7,73,NA,72,145,1,1037,1,1,NA,1980,370,9,2067967475,312,710,4164,Ma'ale Shomeron,http://gis.cbs.gov.il/Yeshuvim_allyears/start.aspx?stl=3637
MA'ALOT-TARSHIHA,"Ma'alot-Tarshiha, Israel",33.015026,35.276017,מעלות-תרשיחא,1063,מעלות-תרשיחא,2,24,243,0,NA,4,21142,16.8,14.3,4.4,1957,160,NA,2263576889,521,223,1320,Ma'alot-Tarshiha,http://gis.cbs.gov.il/Yeshuvim_allyears/start.aspx?stl=1063
MA'GALIM,"Ma'agalim, Israel",31.398859,34.598239,מעגלים,1082,מעגלים,6,62,621,39,NA,1,2012,2,2,NA,1958,190,NA,1618358958,127,651,3482,Ma'galim,http://gis.cbs.gov.il/Yeshuvim_allyears/start.aspx?stl=1082
MA'OR,"Maor, Israel",32.425832,35.005289,מאור,2055,מאור,3,32,324,14,NA,1,1262,1.3,1.2,NA,1953,310,1,2007970341,32,351,1450,Ma'or,http://gis.cbs.gov.il/Yeshuvim_allyears/start.aspx?stl=2055
MABBU'IM,"Mabu'im, Israel",31.44945,34.65499399999999,מבועים,1080,מבועים,6,62,621,42,NA,1,1176,1.2,1.2,NA,1958,350,NA,1671959544,170,651,3482,Mabbu'im,http://gis.cbs.gov.il/Yeshuvim_allyears/start.aspx?stl=1080
MAGGAL,"Magal, Israel",32.385556,35.036147,מגל,375,מגל,3,32,324,14,NA,1,1085,1.1,1.1,NA,1953,330,15,2033869911,72,351,1450,Maggal,http://gis.cbs.gov.il/Yeshuvim_allyears/start.aspx?stl=375
MAGSHIMIM,"Magshimim, Israel",32.044363,34.899834,מגשימים,722,מגשימים,4,42,422,20,132,1,1074,1.1,1.1,NA,1949,310,10,1906166151,50,417,5130,Magshimim,http://gis.cbs.gov.il/Yeshuvim_allyears/start.aspx?stl=722
MAJD AL-KURUM,"Majd al-Krum, Israel",32.920132,35.25665,מג'ד אל-כרום,516,מג'ד אל-כרום,2,24,242,99,NA,2,14842,NA,NA,14.8,NA,270,NA,2241375847,242,260,1310,Majd Al-Kurum,http://gis.cbs.gov.il/Yeshuvim_allyears/start.aspx?stl=516
MAJDAL SHAMS,Majdal Shams,33.2690961,35.772122,מג'דל שמס,4201,מג'דל שמס,2,29,291,99,NA,2,10804,NA,NA,10.8,NA,270,NA,2721679676,1230,256,1270,Majdal Shams,http://gis.cbs.gov.il/Yeshuvim_allyears/start.aspx?stl=4201
MANSHIYYET ZABDA,"Manshiya Zabda, Israel",32.706219,35.192415,מנשית זבדה,994,מנשית זבדה,2,25,237,9,NA,2,1256,NA,NA,1.3,NA,450,NA,2184573467,104,254,1440,Manshiyyet Zabda,http://gis.cbs.gov.il/Yeshuvim_allyears/start.aspx?stl=994
MAS'ADE,Mas'ada,33.2321159,35.7555991,מסעדה,4203,מסעדה,2,29,292,99,NA,2,3557,NA,NA,3.6,NA,290,NA,2709879298,1034,256,1270,Mas'ade,http://gis.cbs.gov.il/Yeshuvim_allyears/start.aspx?stl=4203
MASH'EN,"Mash'en, Israel",31.656885,34.621607,משען,791,משען,6,61,614,36,NA,1,1047,1,1,NA,1950,310,1,1643761845,51,633,3840,Mash'en,http://gis.cbs.gov.il/Yeshuvim_allyears/start.aspx?stl=791
MATTAN,Matan,32.159377,34.97319,מתן,1315,מתן,4,42,421,20,142,1,3554,3.6,3.5,NA,1995,190,NA,1976167391,66,417,5150,Mattan,http://gis.cbs.gov.il/Yeshuvim_allyears/start.aspx?stl=1315
MAZKERET BATYA,"Mazkeret Batya, Israel",31.853167,34.842421,מזכרת בתיה,28,מזכרת בתיה,4,44,441,99,143,1,13420,13.4,13.2,NA,1883,170,NA,1852464000,62,453,5230,Mazkeret Batya,http://gis.cbs.gov.il/Yeshuvim_allyears/start.aspx?stl=28
MAZLIAH,"Matsli'ah, Israel",31.906364,34.871278,מצליח,757,מצליח,4,43,432,30,143,1,1327,1.3,1.3,NA,1950,310,1,1881064598,81,426,5220,Mazliah,http://gis.cbs.gov.il/Yeshuvim_allyears/start.aspx?stl=757
MAZOR,"Mazor, Israel",32.050698,34.931373,מזור,606,מזור,4,42,422,25,142,1,1323,1.3,1.3,NA,1949,310,1,1931066207,54,424,5130,Mazor,http://gis.cbs.gov.il/Yeshuvim_allyears/start.aspx?stl=606
MAZRA'A,"Mazra'a, Israel",32.983652,35.098934,מזרעה,517,מזרעה,2,24,245,99,241,2,3714,NA,NA,3.7,NA,290,NA,2095476542,15,201,1350,Mazra'a,http://gis.cbs.gov.il/Yeshuvim_allyears/start.aspx?stl=517
MAZZUVA,"Matzuva, Israel",33.062312,35.155705,מצובה,325,מצובה,2,24,244,4,NA,1,1166,1.2,1.1,NA,1940,330,15,2150377427,92,201,1350,Mazzuva,http://gis.cbs.gov.il/Yeshuvim_allyears/start.aspx?stl=325
MEFALLESIM,"Mefalsim, Israel",31.50220599999999,34.561674,מפלסים,668,מפלסים,6,61,614,37,NA,1,1001,1,1,NA,1949,330,15,1584160127,94,651,3840,Mefallesim,http://gis.cbs.gov.il/Yeshuvim_allyears/start.aspx?stl=668
MEGADIM,"Megadim, Israel",32.727734,34.960923,מגדים,689,מגדים,3,32,321,15,223,1,1286,1.3,1.3,NA,1949,310,1,1964273727,15,303,1182,Megadim,http://gis.cbs.gov.il/Yeshuvim_allyears/start.aspx?stl=689
MEISER,"Meiser, Israel",32.445246,35.042131,מייסר,649,מייסר,3,32,323,14,NA,2,1925,NA,NA,1.9,NA,450,NA,2041670564,57,351,1450,Meiser,http://gis.cbs.gov.il/Yeshuvim_allyears/start.aspx?stl=649
MENAHEMYA,"Menahemia, Israel",32.664333,35.55533800000001,מנחמיה,48,מנחמיה,2,22,221,7,NA,1,1005,1,1,NA,1902,350,NA,2523473022,-154,202,1240,Menahemya,http://gis.cbs.gov.il/Yeshuvim_allyears/start.aspx?stl=48
MERHAVYA(QIBBUZ),"Merhavia, Israel",32.60585,35.30725,מרחביה (קיבוץ),66,מרחביה (קיבוץ),2,23,234,9,NA,1,1173,1.2,1.1,NA,1911,330,15,2291272352,71,254,1420,Merhavya(Qibbuz),http://gis.cbs.gov.il/Yeshuvim_allyears/start.aspx?stl=66
MERKAZ SHAPPIRA,"Merkaz Shapira, Israel",31.696927,34.707319,מרכז שפירא,1098,מרכז שפירא,6,61,611,34,NA,1,2154,2.2,2.2,NA,1948,190,NA,1722562273,50,631,3830,Merkaz Shappira,http://gis.cbs.gov.il/Yeshuvim_allyears/start.aspx?stl=1098
MESHHED,"Mashhad, Israel",32.738912,35.322494,משהד,520,משהד,2,25,237,99,NA,2,7950,NA,NA,7.9,NA,280,NA,2305873839,268,257,1410,Meshhed,http://gis.cbs.gov.il/Yeshuvim_allyears/start.aspx?stl=520
MESILLAT ZIYYON,"Mesilat Zion, Israel",31.801449,35.009463,מסילת ציון,742,מסילת ציון,1,11,112,26,444,1,1263,1.3,1.2,NA,1950,310,1,2011563441,303,151,7004,Mesillat Ziyyon,http://gis.cbs.gov.il/Yeshuvim_allyears/start.aspx?stl=742
METAR,"Meitar, Israel",31.327011,34.943213,מיתר,1268,מיתר,6,62,623,99,342,1,7496,7.4,7.3,NA,1984,180,NA,1942358159,457,615,3481,Metar,http://gis.cbs.gov.il/Yeshuvim_allyears/start.aspx?stl=1268
METULA,"Metula, Israel",33.277232,35.578235,מטולה,43,מטולה,2,21,211,99,NA,1,1589,1.5,1.5,NA,1896,350,NA,2541579817,442,259,1210,Metula,http://gis.cbs.gov.il/Yeshuvim_allyears/start.aspx?stl=43
MEVASSERET ZIYYON,"Mevaseret Zion, Israel",31.804052,35.157891,מבשרת ציון,1015,מבשרת ציון,1,11,111,99,444,1,24434,24.3,23.6,NA,1951,160,NA,2144363412,717,152,6129,Mevasseret Ziyyon,http://gis.cbs.gov.il/Yeshuvim_allyears/start.aspx?stl=1015
MEVO HORON,Mevo Horon,31.849598,35.034977,מבוא חורון,3709,מבוא חורון,7,74,NA,73,NA,1,2566,2.6,2.6,NA,1970,192,8,2035663942,249,711,4354,Mevo Horon,http://gis.cbs.gov.il/Yeshuvim_allyears/start.aspx?stl=3709
MI'ELYA,"Mi'ilya, Israel",33.027194,35.256304,מעיליא,518,מעיליא,2,24,243,99,NA,2,3204,NA,NA,3.1,NA,290,NA,2244177018,502,258,1320,Mi'elya,http://gis.cbs.gov.il/Yeshuvim_allyears/start.aspx?stl=518
MIDRESHET BEN GURION,"Midreshet Ben-Gurion, Israel",30.852297,34.7834,מדרשת בן גוריון,1140,מדרשת בן גוריון,6,62,626,48,NA,1,1886,1.9,1.8,NA,1965,350,NA,1790952918,473,620,3450,Midreshet Ben Gurion,http://gis.cbs.gov.il/Yeshuvim_allyears/start.aspx?stl=1140
MIGDAL,"Migdal, Israel",32.839494,35.499849,מגדל,65,מגדל,2,22,221,99,NA,1,1880,1.8,1.8,NA,1910,350,NA,2475774922,-85,251,1240,Migdal,http://gis.cbs.gov.il/Yeshuvim_allyears/start.aspx?stl=65
MIGDAL HAEMEQ,"Migdal HaEmek, Israel",32.6778114,35.2417497,מגדל העמק,874,מגדל העמק,2,23,237,0,NA,1,25084,25.1,22.7,NA,1952,160,NA,2230973150,212,221,1440,Migdal HaEmeq,http://gis.cbs.gov.il/Yeshuvim_allyears/start.aspx?stl=874
MIKHMORET,"Mikhmoret, Israel",32.406504,34.871551,מכמורת,382,מכמורת,4,41,411,16,141,1,1380,1.4,1.3,NA,1945,310,1,1883170142,12,409,5120,Mikhmoret,http://gis.cbs.gov.il/Yeshuvim_allyears/start.aspx?stl=382
MISHMAR HAEMEQ,"Mishmar HaEmek, Israel",32.610063,35.14267299999999,משמר העמק,130,משמר העמק,2,23,234,13,NA,1,1228,1.2,1.2,NA,1926,330,15,2136472399,105,254,1420,Mishmar HaEmeq,http://gis.cbs.gov.il/Yeshuvim_allyears/start.aspx?stl=130
MISHMAR HASHIV'A,"Mishmar HaShiv'a, Israel",32.010891,34.822337,משמר השבעה,729,משמר השבעה,4,43,432,40,133,1,1003,1,1,NA,1949,310,19,1834765747,28,425,5210,Mishmar HaShiv'a,http://gis.cbs.gov.il/Yeshuvim_allyears/start.aspx?stl=729
MISHMERET,"Mishmeret, Israel",32.227586,34.922055,משמרת,425,משמרת,4,41,411,18,141,1,1057,1.1,1,NA,1946,310,1,1926568163,57,412,5120,Mishmeret,http://gis.cbs.gov.il/Yeshuvim_allyears/start.aspx?stl=425
MIZPE RAMON,"Mitzpe Ramon, Israel",30.610203,34.801898,מצפה רמון,99,מצפה רמון,6,62,626,99,NA,1,5123,4.9,4.5,NA,1954,180,NA,1810250379,714,613,3450,Mizpe Ramon,http://gis.cbs.gov.il/Yeshuvim_allyears/start.aspx?stl=99
MIZPE YERIHO,Mitzpe Yeriho,31.815688,35.395409,מצפה יריחו,3576,מצפה יריחו,7,75,NA,73,445,1,2319,2.3,2.3,NA,1978,190,11,2374163591,166,711,4355,Mizpe Yeriho,http://gis.cbs.gov.il/Yeshuvim_allyears/start.aspx?stl=3576
MODI'IN-MAKKABBIM-RE'UT,"Modi'in-Maccabim-Re'ut, Israel",31.890267,35.010397,מודיעין-מכבים-רעות*,1200,מודיעין-מכבים-רעות*,4,43,431,0,142,1,90013,90,88.2,NA,1986,150,NA,2013064473,209,420,5290,Modi'in-Makkabbim-Re'ut,http://gis.cbs.gov.il/Yeshuvim_allyears/start.aspx?stl=1200
MODI'IN ILLIT,Modi'in Ilit,31.932477,35.042265,מודיעין עילית,3797,מודיעין עילית,7,74,NA,0,NA,1,66847,66.8,66.8,NA,1996,150,NA,2035964873,283,730,4354,Modi'in Illit,http://gis.cbs.gov.il/Yeshuvim_allyears/start.aspx?stl=3797
MOLEDET,"Moledet, Israel",32.586196,35.438941,מולדת,269,מולדת,2,23,233,8,NA,1,1012,1,1,NA,1937,320,1,2416372136,63,204,1420,Moledet,http://gis.cbs.gov.il/Yeshuvim_allyears/start.aspx?stl=269
MORESHET,"Moreshet, Israel",32.826132,35.231997,מורשת,1178,מורשת,2,24,241,56,241,1,1439,1.4,1.4,NA,1981,370,11,2221774795,310,205,1360,Moreshet,http://gis.cbs.gov.il/Yeshuvim_allyears/start.aspx?stl=1178
MUGHAR,"Maghar, Israel",32.890704,35.40461,מגאר,481,מגאר,2,22,222,99,NA,2,21907,NA,NA,21.9,NA,260,NA,2389075473,148,251,1240,Mughar,http://gis.cbs.gov.il/Yeshuvim_allyears/start.aspx?stl=481
MUQEIBLE,Muqeible,32.514142,35.294806,מוקייבלה,635,מוקייבלה,2,23,234,8,NA,2,3842,NA,NA,3.8,NA,290,NA,2280771334,88,204,1420,Muqeible,http://gis.cbs.gov.il/Yeshuvim_allyears/start.aspx?stl=635
NA'ALE,Na'ale,31.962594,35.065976,נעלה,3787,נעלה,7,74,NA,73,145,1,1661,1.7,1.6,NA,1988,350,NA,2062065221,397,711,4354,Na'ale,http://gis.cbs.gov.il/Yeshuvim_allyears/start.aspx?stl=3787
NA'AN,"Na'an, Israel",31.883208,34.859237,נען,158,נען,4,43,432,30,143,1,1590,1.6,1.6,NA,1930,330,15,1866564345,90,426,5230,Na'an,http://gis.cbs.gov.il/Yeshuvim_allyears/start.aspx?stl=158
NA'URA,"Na'ura, Israel",32.61468,35.391133,נאעורה,524,נאעורה,2,23,233,8,NA,2,2175,NA,NA,2.2,NA,290,NA,2369972443,114,204,1420,Na'ura,http://gis.cbs.gov.il/Yeshuvim_allyears/start.aspx?stl=524
NAHARIYYA,"Nahariyya, Israel",33.0085361,35.0980514,נהרייה,9100,נהרייה,2,24,245,0,241,1,54903,53.5,48.7,NA,1934,150,NA,2094676817,24,210,1350,Nahariyya,http://gis.cbs.gov.il/Yeshuvim_allyears/start.aspx?stl=9100
NAHEF,"Nahf, Israel",32.934675,35.31652,נחף,522,נחף,2,24,242,99,NA,2,12338,NA,NA,12.3,NA,270,NA,2299975999,317,260,1310,Nahef,http://gis.cbs.gov.il/Yeshuvim_allyears/start.aspx?stl=522
NAVE,"Nave, Qatsrin",32.989686,35.6911,נווה,1366,נווה,6,62,622,38,NA,1,1190,1.2,1.2,NA,2010,310,11,1364556377,100,651,3430,Nave,http://gis.cbs.gov.il/Yeshuvim_allyears/start.aspx?stl=1366
NAZARETH,"Nazareth, Israel",32.699635,35.303546,נצרת,7300,נצרת,2,25,237,0,NA,2,75922,NA,NA,75.8,NA,250,NA,2279473415,347,211,1410,Nazareth,http://gis.cbs.gov.il/Yeshuvim_allyears/start.aspx?stl=7300
NAZERAT ILLIT,"Nazareth Iliit, Israel",32.711539,35.324812,נצרת עילית,1061,נצרת עילית,2,25,237,0,NA,4,40244,30.4,24.6,9.9,1957,160,NA,2305073479,327,212,1460,Nazerat Illit,http://gis.cbs.gov.il/Yeshuvim_allyears/start.aspx?stl=1061
NEHALIM,"Nehalim, Israel",32.05859700000001,34.9136,נחלים,449,נחלים,4,42,422,25,142,1,1605,1.6,1.6,NA,1948,310,2,1918666291,49,424,5130,Nehalim,http://gis.cbs.gov.il/Yeshuvim_allyears/start.aspx?stl=449
NEHORA,"Nehora, Israel",31.621321,34.704496,נהורה,309,נהורה,6,61,612,50,NA,1,1158,1.2,1.1,NA,1956,350,NA,1721261462,96,634,3820,Nehora,http://gis.cbs.gov.il/Yeshuvim_allyears/start.aspx?stl=309
NEHUSHA,"Nehusha, Israel",31.628848,34.952732,נחושה,59,נחושה,1,11,112,26,444,1,1302,1.3,1.3,NA,1982,310,2,1957161534,409,151,7004,Nehusha,http://gis.cbs.gov.il/Yeshuvim_allyears/start.aspx?stl=59
NEIN,"Nein, Israel",32.630986,35.349399,ניין,523,ניין,2,23,233,66,NA,2,1775,NA,NA,1.8,NA,450,NA,2329872632,229,251,1420,Nein,http://gis.cbs.gov.il/Yeshuvim_allyears/start.aspx?stl=523
NES HARIM,"Nes Harim, Israel",31.74419199999999,35.059406,נס הרים,825,נס הרים,1,11,111,26,444,1,1335,1.3,1.3,NA,1950,310,1,2056162807,683,151,7004,Nes Harim,http://gis.cbs.gov.il/Yeshuvim_allyears/start.aspx?stl=825
NES ZIYYONA,"Ness Ziona, Israel",31.932111,34.801327,נס ציונה,7200,נס ציונה,4,44,442,0,133,1,48161,48.1,47.3,NA,1883,160,NA,1810364825,39,407,5210,Nes Ziyyona,http://gis.cbs.gov.il/Yeshuvim_allyears/start.aspx?stl=7200
NESHER,"Nesher, Israel",32.7649,35.049191,נשר,2500,נשר,3,31,311,0,223,1,23684,23.4,20.9,NA,1925,160,NA,2042674162,155,355,1160,Nesher,http://gis.cbs.gov.il/Yeshuvim_allyears/start.aspx?stl=2500
NETANYA,"Netanya, Israel",32.321458,34.853196,נתניה,7400,נתניה,4,41,411,0,141,1,210834,210.5,194,NA,1929,130,NA,1872669145,28,408,5110,Netanya,http://gis.cbs.gov.il/Yeshuvim_allyears/start.aspx?stl=7400
NETIVOT,"Netivot, Israel",31.423196,34.595254,נתיבות,246,נתיבות,6,62,621,0,NA,1,32513,32.5,31.4,NA,1956,160,NA,1606359231,130,609,3482,Netivot,http://gis.cbs.gov.il/Yeshuvim_allyears/start.aspx?stl=246
NEWE DANIYYEL,"Kehilat New York St, Lod, Israel",31.95012999999999,34.901779,נווה דניאל,3725,נווה דניאל,7,76,NA,76,445,1,2278,2.3,2.3,NA,1982,190,2,2136862048,964,714,4352,Newe Daniyyel,http://gis.cbs.gov.il/Yeshuvim_allyears/start.aspx?stl=3725
NEWE YAMIN,"Neve Yamin, Israel",32.171692,34.939378,נווה ימין,686,נווה ימין,4,42,421,20,142,1,1210,1.2,1.2,NA,1949,310,1,1944967534,37,417,5140,Newe Yamin,http://gis.cbs.gov.il/Yeshuvim_allyears/start.aspx?stl=686
NEWE YARAQ,"Neve Yarak, Israel",32.132729,34.925488,נווה ירק,858,נווה ירק,4,42,421,20,142,1,1361,1.4,1.3,NA,1951,310,1,1930367108,25,417,5140,Newe Yaraq,http://gis.cbs.gov.il/Yeshuvim_allyears/start.aspx?stl=858
NILI,Nili,31.963415,35.04727,"ניל""י",3655,"ניל""י",7,74,NA,73,145,1,1552,1.6,1.5,NA,1981,370,11,2045265228,332,711,4354,Nili,http://gis.cbs.gov.il/Yeshuvim_allyears/start.aspx?stl=3655
NIR GALLIM,"Nir Galim, Israel",31.82552,34.68254,ניר גלים,720,ניר גלים,4,44,441,29,143,1,1409,1.4,1.4,NA,1949,320,2,1700563699,21,456,3870,Nir Gallim,http://gis.cbs.gov.il/Yeshuvim_allyears/start.aspx?stl=720
NIR ZEVI,"Nir Tzvi, Israel",31.954403,34.861529,ניר צבי,331,ניר צבי,4,43,432,40,133,1,1297,1.3,1.3,NA,1954,310,10,1871665111,58,425,5220,Nir Zevi,http://gis.cbs.gov.il/Yeshuvim_allyears/start.aspx?stl=331
NIZZAN,"Vía Israel, Panamá, Panama",31.7381624,34.6151744,ניצן,351,ניצן,6,61,614,36,NA,1,1982,2,2,NA,1949,350,NA,1650562760,39,633,3810,Nizzan,http://gis.cbs.gov.il/Yeshuvim_allyears/start.aspx?stl=351
NIZZAN B,"Nitzan, Israel",31.737518,34.630804,ניצן ב',1419,ניצן ב',6,61,614,36,NA,1,1132,1.1,1.1,NA,2007,350,NA,1656462721,37,633,3810,Nizzan B,http://gis.cbs.gov.il/Yeshuvim_allyears/start.aspx?stl=1419
NIZZANE OZ,Nizzane Oz Interchange,32.3137436,35.0126635,ניצני עוז,851,ניצני עוז,4,41,412,18,141,1,1103,1.1,1.1,NA,1951,310,1,2005769025,43,412,5150,Nizzane Oz,http://gis.cbs.gov.il/Yeshuvim_allyears/start.aspx?stl=851
NOF AYYALON,"Nof Ayalon, Israel",31.871215,34.991321,נוף איילון,1333,נוף איילון,4,43,431,30,143,1,2232,2.2,2.2,NA,1994,190,NA,1990464177,200,426,5220,Nof Ayyalon,http://gis.cbs.gov.il/Yeshuvim_allyears/start.aspx?stl=1333
NOFIT,"Nofit, Israel",32.763374,35.148316,נופית,1284,נופית,3,31,311,12,222,1,2716,2.7,2.7,NA,1987,190,NA,2139474052,179,301,1160,Nofit,http://gis.cbs.gov.il/Yeshuvim_allyears/start.aspx?stl=1284
NOQEDIM,Nokdim,31.645331,35.244064,נוקדים,3726,נוקדים,7,76,NA,76,445,1,2052,2.1,2,NA,1982,190,11,2231761702,587,714,4352,Noqedim,http://gis.cbs.gov.il/Yeshuvim_allyears/start.aspx?stl=3726
NORDIYYA,"Nordia, Israel",32.314656,34.896792,נורדייה,447,נורדייה,4,41,411,18,141,1,1998,2,2,NA,1948,320,9,1904669131,50,412,5120,Nordiyya,http://gis.cbs.gov.il/Yeshuvim_allyears/start.aspx?stl=447
OFAQIM,"Ofakim, Israel",31.311337,34.622824,אופקים,31,אופקים,6,62,622,0,NA,1,26625,26.5,24.8,NA,1955,160,NA,1639057980,141,601,3430,Ofaqim,http://gis.cbs.gov.il/Yeshuvim_allyears/start.aspx?stl=31
OFRA,Ofra,31.955101,35.260324,עפרה,3617,עפרה,7,74,NA,73,445,1,3605,3.6,3.6,NA,1975,190,NA,2252865100,828,711,4354,Ofra,http://gis.cbs.gov.il/Yeshuvim_allyears/start.aspx?stl=3617
OLESH,"Olesh, Israel",32.331969,34.98532100000001,עולש,737,עולש,4,41,412,16,141,1,1098,1.1,1.1,NA,1949,310,1,1988669317,36,409,5120,Olesh,http://gis.cbs.gov.il/Yeshuvim_allyears/start.aspx?stl=737
OMER,"Omer, Israel",31.264305,34.849864,עומר,666,עומר,6,62,623,99,342,1,7514,7.4,7.3,NA,1949,180,NA,1857157523,331,614,3481,Omer,http://gis.cbs.gov.il/Yeshuvim_allyears/start.aspx?stl=666
OR AQIVA,"Or Akiva, Israel",32.509965,34.920394,אור עקיבא,1020,אור עקיבא,3,32,324,0,NA,1,17568,17.5,16.2,NA,1951,170,NA,1927471263,15,353,1180,Or Aqiva,http://gis.cbs.gov.il/Yeshuvim_allyears/start.aspx?stl=1020
OR YEHUDA,"Or Yehuda, Israel",32.029748,34.85617300000001,אור יהודה,2400,אור יהודה,5,52,512,0,122,1,36536,36.5,35.7,NA,1950,160,NA,1863165963,29,552,2370,Or Yehuda,http://gis.cbs.gov.il/Yeshuvim_allyears/start.aspx?stl=2400
ORA,"Ora, Israel",31.752109,35.150165,אורה,780,אורה,1,11,111,26,444,1,1416,1.4,1.4,NA,1950,310,1,2145762903,804,151,6130,Ora,http://gis.cbs.gov.il/Yeshuvim_allyears/start.aspx?stl=780
ORANIT,Oranit,32.131924,34.99081,אורנית,3760,אורנית,7,73,NA,99,145,1,8652,8.6,8.5,NA,1985,180,NA,1994767087,125,718,4164,Oranit,http://gis.cbs.gov.il/Yeshuvim_allyears/start.aspx?stl=3760
PARDES HANNA-KARKUR,"Pardes Hanna-Karkur, Israel",32.4728028,34.9742001,פרדס חנה-כרכור,7800,פרדס חנה-כרכור,3,32,324,99,NA,1,39561,39.5,38.3,NA,1913,160,NA,1979470872,48,308,1180,Pardes Hanna-Karkur,http://gis.cbs.gov.il/Yeshuvim_allyears/start.aspx?stl=7800
PARDESIYYA,"Pardesiya, Israel",32.305011,34.911731,פרדסייה,171,פרדסייה,4,41,411,99,141,1,5750,5.7,5.7,NA,1942,180,NA,1918269027,52,457,5120,Pardesiyya,http://gis.cbs.gov.il/Yeshuvim_allyears/start.aspx?stl=171
PEDU'EL,Pedu'el,32.062479,35.052619,פדואל,3768,פדואל,7,73,NA,72,145,1,1682,1.7,1.7,NA,1984,370,2,2050766315,369,710,4164,Pedu'el,http://gis.cbs.gov.il/Yeshuvim_allyears/start.aspx?stl=3768
PEQI'IN (BUQEI'A),"Pki'in St, Ma'alot-Tarshiha, Israel",33.012733,35.286286,פקיעין (בוקייעה),536,פקיעין (בוקייעה),2,24,243,99,NA,2,5690,NA,NA,5.7,NA,280,NA,2308876423,615,258,1320,Peqi'in (Buqei'a),http://gis.cbs.gov.il/Yeshuvim_allyears/start.aspx?stl=536
PESAGOT,Psagot,31.899984,35.223923,פסגות,3659,פסגות,7,74,NA,73,445,1,1847,1.8,1.8,NA,1981,370,11,2213764511,877,711,4354,Pesagot,http://gis.cbs.gov.il/Yeshuvim_allyears/start.aspx?stl=3659
PETAH TIQWA,"Petah Tikva, Israel",32.084041,34.887762,פתח תקווה,7900,פתח תקווה,4,42,422,0,132,1,236169,235.9,217.2,NA,1878,130,NA,1894166579,31,410,5130,Petah Tiqwa,http://gis.cbs.gov.il/Yeshuvim_allyears/start.aspx?stl=7900
PORAT,"Porat, Israel",32.277081,34.948816,פורת,767,פורת,4,41,411,18,141,1,1233,1.2,1.2,NA,1950,310,2,1955168699,57,412,5120,Porat,http://gis.cbs.gov.il/Yeshuvim_allyears/start.aspx?stl=767
PORIYYA-NEWE OVED,"Poria - Neve Oved, Israel",32.743763,35.53811,פורייה - נווה עובד,1105,פורייה - נווה עובד,2,22,221,6,NA,1,1165,1.2,1.1,NA,1949,350,NA,2506573889,139,214,1240,Poriyya-Newe Oved,http://gis.cbs.gov.il/Yeshuvim_allyears/start.aspx?stl=1105
PORIYYA ILLIT,"Poria Illit, Israel",32.732736,35.546162,פורייה עילית,1313,פורייה עילית,2,22,221,6,NA,1,1010,1,0.9,NA,1955,350,NA,2515473737,137,214,1240,Poriyya Illit,http://gis.cbs.gov.il/Yeshuvim_allyears/start.aspx?stl=1313
QADIMA-ZORAN,"Kadima Zoran, Israel",32.277644,34.919297,קדימה-צורן,195,קדימה-צורן,4,41,411,99,141,1,21403,21.4,21,NA,1933,160,NA,1925868737,51,457,5120,Qadima- Zoran,http://gis.cbs.gov.il/Yeshuvim_allyears/start.aspx?stl=195
QALANSAWE,"Qalansawe, Israel",32.285791,34.981487,קלנסווה,638,קלנסווה,4,41,412,0,141,2,21893,NA,NA,21.8,NA,260,NA,1980768825,37,458,5150,Qalansawe,http://gis.cbs.gov.il/Yeshuvim_allyears/start.aspx?stl=638
QARNE SHOMERON,Karnei Shomron,32.171553,35.097462,קרני שומרון,3640,קרני שומרון,7,73,NA,99,145,1,7102,7.1,6.8,NA,1978,180,NA,2088767523,317,717,4164,Qarne Shomeron,http://gis.cbs.gov.il/Yeshuvim_allyears/start.aspx?stl=3640
QASR A-SIR,"Qasr al-Sir, Israel",31.083329,34.979579,קצר א-סר,1347,קצר א-סר,6,62,623,68,NA,2,1574,NA,NA,1.6,NA,450,NA,1982455466,537,624,3450,Qasr A-Sir,http://gis.cbs.gov.il/Yeshuvim_allyears/start.aspx?stl=1347
QAZIR,"Qazir, Israel",32.485178,35.10873,קציר,1243,קציר,3,32,323,14,NA,1,2843,2.8,2.6,NA,1982,190,NA,2100471022,324,351,1450,Qazir,http://gis.cbs.gov.il/Yeshuvim_allyears/start.aspx?stl=1243
QAZRIN,Qatsrin,32.990998,35.689865,קצרין,4100,קצרין,2,29,293,99,NA,1,6998,6.9,5.7,NA,1977,180,NA,2646476651,339,220,1270,Qazrin,http://gis.cbs.gov.il/Yeshuvim_allyears/start.aspx?stl=4100
QEDAR,"Kedar, Gush Etzion",31.754384,35.310732,קדר,3781,קדר,7,76,NA,76,445,1,1555,1.6,1.5,NA,1985,370,9,2295662907,456,714,4355,Qedar,http://gis.cbs.gov.il/Yeshuvim_allyears/start.aspx?stl=3781
QEDUMIM,Kdumim,32.21239,35.157388,קדומים,3557,קדומים,7,73,NA,99,145,1,4323,4.3,4.3,NA,1977,190,NA,2152868054,417,710,4164,Qedumim,http://gis.cbs.gov.il/Yeshuvim_allyears/start.aspx?stl=3557
QESARYYA,"Caesarea, Israel",32.519016,34.904544,קיסריה,1167,קיסריה,3,32,324,15,NA,1,4970,5,4.8,NA,1977,190,NA,1915771263,21,303,1180,Qesaryya,http://gis.cbs.gov.il/Yeshuvim_allyears/start.aspx?stl=1167
QIDRON,"Kidron, Israel",31.814142,34.795548,קדרון,615,קדרון,4,44,441,28,143,1,1577,1.6,1.6,NA,1949,310,1,1808163592,52,456,5230,Qidron,http://gis.cbs.gov.il/Yeshuvim_allyears/start.aspx?stl=615
QIRYAT ARBA,Kiryat Arba,31.529326,35.115625,קריית ארבע,3611,קריית ארבע,7,77,NA,99,NA,1,7272,7.3,7.1,NA,1972,180,NA,2112560480,913,709,4352,Qiryat Arba,http://gis.cbs.gov.il/Yeshuvim_allyears/start.aspx?stl=3611
QIRYAT ATTA,"Kiryat Ata, Israel",32.809144,35.119773,קריית אתא,6800,קריית אתא,3,31,311,0,222,1,56635,56.5,52.4,NA,1925,150,NA,2104074553,37,305,1160,Qiryat Atta,http://gis.cbs.gov.il/Yeshuvim_allyears/start.aspx?stl=6800
QIRYAT BIALIK,"Kiryat Bialik, Israel",32.832154,35.088407,קריית ביאליק,9500,קריית ביאליק,3,31,311,0,221,1,39294,39.3,36.1,NA,1934,160,NA,2087274934,12,352,1160,Qiryat Bialik,http://gis.cbs.gov.il/Yeshuvim_allyears/start.aspx?stl=9500
QIRYAT EQRON,"Kiryat Ekron, Israel",31.862547,34.8219576,קריית עקרון,469,קריית עקרון,4,44,441,99,133,1,10802,10.7,10.4,NA,1948,170,NA,1833664101,55,453,5230,Qiryat Eqron,http://gis.cbs.gov.il/Yeshuvim_allyears/start.aspx?stl=469
QIRYAT GAT,"Kiryat Gat, Israel",31.611148,34.768459,קריית גת,2630,קריית גת,6,61,612,0,NA,1,52585,52.5,49.4,NA,1954,150,NA,1777461305,128,606,3820,Qiryat Gat,http://gis.cbs.gov.il/Yeshuvim_allyears/start.aspx?stl=2630
QIRYAT MAL'AKHI,"Kiryat Malakhi, Israel",31.730202,34.746996,קריית מלאכי,1034,קריית מלאכי,6,61,611,0,143,1,21809,21.8,21.4,NA,1951,160,NA,1760162673,62,617,3830,Qiryat Mal'akhi,http://gis.cbs.gov.il/Yeshuvim_allyears/start.aspx?stl=1034
QIRYAT MOTZKIN,"Kiryat Motzkin, Israel",32.838202,35.079523,קריית מוצקין,8200,קריית מוצקין,3,31,311,0,221,1,40750,40.7,37.2,NA,1934,160,NA,2077774897,9,352,1160,Qiryat Motzkin,http://gis.cbs.gov.il/Yeshuvim_allyears/start.aspx?stl=8200
QIRYAT ONO,"Kiryat Ono, Israel",32.054863,34.85885800000001,קריית אונו,2620,קריית אונו,5,52,512,0,122,1,38596,38.6,37.6,NA,1939,160,NA,1866566310,61,508,2370,Qiryat Ono,http://gis.cbs.gov.il/Yeshuvim_allyears/start.aspx?stl=2620
QIRYAT SHEMONA,"Qiryat Shemona, Israel",33.207933,35.570246,קריית שמונה,2800,קריית שמונה,2,21,211,0,NA,1,22948,22.1,20.5,NA,1950,160,NA,2538379074,207,217,1210,Qiryat Shemona,http://gis.cbs.gov.il/Yeshuvim_allyears/start.aspx?stl=2800
QIRYAT TIV'ON,"Kiryat Tiv'on, Israel",32.716221,35.127483,קריית טבעון,2300,קריית טבעון,3,31,311,99,222,1,17635,17.6,17.2,NA,1937,170,NA,2121573567,120,306,1160,Qiryat Tiv'on,http://gis.cbs.gov.il/Yeshuvim_allyears/start.aspx?stl=2300
QIRYAT YAM,"Kiryat Yam, Israel",32.849276,35.068929,קריית ים,9600,קריית ים,3,31,311,0,221,1,39416,39.3,34,NA,1941,160,NA,2070475044,6,352,1160,Qiryat Yam,http://gis.cbs.gov.il/Yeshuvim_allyears/start.aspx?stl=9600
QIRYAT YE'ARIM,"Kiryat Ye'arim, Israel",31.802774,35.099945,קריית יערים,1137,קריית יערים,1,11,111,99,444,1,4206,4.2,4.2,NA,1975,190,NA,2097463456,711,152,6129,Qiryat Ye'arim,http://gis.cbs.gov.il/Yeshuvim_allyears/start.aspx?stl=1137
RA'ANNANA,"Ra'anana, Israel",32.184781,34.871326,רעננה,8700,רעננה,4,42,421,0,131,1,71686,71.6,70,NA,1921,150,NA,1879367696,48,416,5140,Ra'annana,http://gis.cbs.gov.il/Yeshuvim_allyears/start.aspx?stl=8700
RAHAT,"Rahat, Israel",31.394548,34.753934,רהט,1161,רהט,6,62,623,0,341,2,64462,NA,NA,64.3,NA,250,NA,1766158902,222,618,3485,Rahat,http://gis.cbs.gov.il/Yeshuvim_allyears/start.aspx?stl=1161
RAMAT GAN,"Ramat Gan, Israel",32.068424,34.824785,רמת גן,8600,רמת גן,5,52,512,0,122,1,153674,153.3,144.9,NA,1921,140,NA,1835466403,37,506,2300,Ramat Gan,http://gis.cbs.gov.il/Yeshuvim_allyears/start.aspx?stl=8600
RAMAT HAKOVESH,"Ramat HaKovesh, Israel",32.218313,34.93828999999999,רמת הכובש,184,רמת הכובש,4,42,421,20,141,1,1075,1.1,1,NA,1932,330,15,1943568047,61,417,5140,Ramat HaKovesh,http://gis.cbs.gov.il/Yeshuvim_allyears/start.aspx?stl=184
RAMAT HASHARON,"Ramat Hasharon, Israel",32.137793,34.840278,רמת השרון,2650,רמת השרון,5,51,511,0,121,1,45066,45,44.4,NA,1923,160,NA,1851967184,39,553,2360,Ramat HaSharon,http://gis.cbs.gov.il/Yeshuvim_allyears/start.aspx?stl=2650
RAMAT HASHOFET,"Ramat HaShofet, Israel",32.609356,35.094079,רמת השופט,335,רמת השופט,2,23,236,13,NA,1,1062,1.1,1,NA,1941,330,15,2091072404,240,254,1420,Ramat HaShofet,http://gis.cbs.gov.il/Yeshuvim_allyears/start.aspx?stl=335
RAMAT YISHAY,"Ramat Yishai, Israel",32.704029,35.166003,רמת ישי,122,רמת ישי,2,23,235,99,242,1,7574,7.6,7.5,NA,1925,180,NA,2158073427,93,257,1440,Ramat Yishay,http://gis.cbs.gov.il/Yeshuvim_allyears/start.aspx?stl=122
RAME,"Rameh, Israel",32.937112,35.366984,ראמה,543,ראמה,2,24,242,99,NA,2,7470,NA,NA,7.5,NA,280,NA,2346576038,383,260,1310,Rame,http://gis.cbs.gov.il/Yeshuvim_allyears/start.aspx?stl=543
RAMLA,"Ramla, Israel",31.931566,34.872938,רמלה,8500,רמלה,4,43,432,0,133,4,74964,57.7,54.2,17.3,1948,150,NA,1874864840,76,415,5220,Ramla,http://gis.cbs.gov.il/Yeshuvim_allyears/start.aspx?stl=8500
RAMOT HASHAVIM,"Ramot HaShavim, Israel",32.16509,34.881543,רמות השבים,206,רמות השבים,4,42,421,20,131,1,1693,1.7,1.7,NA,1933,350,NA,1891467473,61,417,5140,Ramot HaShavim,http://gis.cbs.gov.il/Yeshuvim_allyears/start.aspx?stl=206
RAMOT MENASHE,"Ramot Menashe, Israel",32.597042,35.057177,רמות מנשה,445,רמות מנשה,2,23,236,13,NA,1,1130,1.1,1.1,NA,1948,330,15,2055872256,180,254,1420,Ramot Menashe,http://gis.cbs.gov.il/Yeshuvim_allyears/start.aspx?stl=445
REGBA,"Regba, Israel",32.977493,35.099129,רגבה,390,רגבה,2,24,245,4,241,1,1052,1.1,1,NA,1946,320,15,2096376474,18,201,1350,Regba,http://gis.cbs.gov.il/Yeshuvim_allyears/start.aspx?stl=390
REHOVOT,"Rehovot, Israel",31.892773,34.811272,רחובות,8400,רחובות,4,44,441,0,133,1,135726,135.4,128.2,NA,1890,140,NA,1819364437,51,414,5230,Rehovot,http://gis.cbs.gov.il/Yeshuvim_allyears/start.aspx?stl=8400
REIHANIYYE,"Rehaniya, Israel",33.049922,35.487062,ריחאנייה,540,ריחאנייה,2,21,212,2,NA,2,1189,NA,NA,1.2,NA,450,NA,2458877273,674,209,1230,Reihaniyye,http://gis.cbs.gov.il/Yeshuvim_allyears/start.aspx?stl=540
REINE,"Reineh, Israel",32.719924,35.317654,ריינה,542,ריינה,2,25,237,99,NA,2,18577,NA,NA,18.6,NA,270,NA,2295373625,318,257,1410,Reine,http://gis.cbs.gov.il/Yeshuvim_allyears/start.aspx?stl=542
REKHASIM,"Rekhasim, Israel",32.749265,35.099581,רכסים,922,רכסים,3,31,311,99,222,1,11366,11.4,11.4,NA,1957,170,NA,2097573971,97,355,1160,Rekhasim,http://gis.cbs.gov.il/Yeshuvim_allyears/start.aspx?stl=922
REVAVA,Revava,32.11871,35.129583,רבבה,3795,רבבה,7,72,NA,72,145,1,2181,2.2,2.2,NA,1991,190,11,2122766947,433,710,4164,Revava,http://gis.cbs.gov.il/Yeshuvim_allyears/start.aspx?stl=3795
REVIVIM,"Revivim, Israel",31.045195,34.72108600000001,רביבים,354,רביבים,6,62,626,48,NA,1,1047,1,0.9,NA,1943,330,15,1734455040,283,620,3450,Revivim,http://gis.cbs.gov.il/Yeshuvim_allyears/start.aspx?stl=354
RINNATYA,"Rinatya, Israel",32.044365,34.928477,רינתיה,616,רינתיה,4,42,422,25,142,1,1159,1.2,1.1,NA,1949,310,1,1933666125,62,424,5130,Rinnatya,http://gis.cbs.gov.il/Yeshuvim_allyears/start.aspx?stl=616
RISHON LEZIYYON,"Rishon LeTsiyon, Israel",31.9730015,34.7925013,ראשון לציון,8300,ראשון לציון,4,44,442,0,133,1,247323,247.2,227.9,NA,1882,130,NA,1812665292,41,413,5210,Rishon LeZiyyon,http://gis.cbs.gov.il/Yeshuvim_allyears/start.aspx?stl=8300
RISHPON,"Rishpon, Israel",32.201856,34.824723,רשפון,247,רשפון,4,41,411,19,141,1,1432,1.4,1.4,NA,1936,310,1,1836267862,25,401,2360,Rishpon,http://gis.cbs.gov.il/Yeshuvim_allyears/start.aspx?stl=247
ROSH HAAYIN,"Rosh Haayin, Israel",32.095838,34.952177,ראש העין,2640,ראש העין,4,42,422,0,142,1,45487,45.5,44.9,NA,1950,160,NA,1960666694,81,418,5160,Rosh HaAyin,http://gis.cbs.gov.il/Yeshuvim_allyears/start.aspx?stl=2640
ROSH PINNA,"Rosh Pinna, Israel",32.970422,35.542659,ראש פינה,26,ראש פינה,2,21,213,99,NA,1,3003,3,2.9,NA,1882,190,NA,2510576383,308,259,1220,Rosh Pinna,http://gis.cbs.gov.il/Yeshuvim_allyears/start.aspx?stl=26
RUMAT HEIB,"Rumat al-Heib, Israel",32.777591,35.305683,רומת הייב,997,רומת הייב,2,25,237,65,NA,2,1929,NA,NA,1.9,NA,450,NA,2288174260,193,251,1410,Rumat Heib,http://gis.cbs.gov.il/Yeshuvim_allyears/start.aspx?stl=997
RUMMANE,"Rumana, Israel",32.788118,35.311211,רומאנה,539,רומאנה,2,25,237,65,NA,2,1135,NA,NA,1.1,NA,450,NA,2294374367,166,251,1410,Rummane,http://gis.cbs.gov.il/Yeshuvim_allyears/start.aspx?stl=539
SAJUR,"Sajur, Israel",32.943109,35.343616,סאג'ור,525,סאג'ור,2,24,242,99,NA,2,4087,NA,NA,4.1,NA,290,NA,2324076080,344,260,1310,Sajur,http://gis.cbs.gov.il/Yeshuvim_allyears/start.aspx?stl=525
SAKHNIN,"Sakhnin, Israel",32.864167,35.294547,סח'נין,7500,סח'נין,2,24,241,0,NA,2,29856,NA,NA,29.8,NA,260,NA,2282575219,223,262,1360,Sakhnin,http://gis.cbs.gov.il/Yeshuvim_allyears/start.aspx?stl=7500
SALLAMA,"Sallama, Israel",32.893248,35.370499,סלמה,1245,סלמה,2,24,242,56,NA,2,3140,NA,NA,3.1,NA,290,NA,2348075532,187,205,1360,Sallama,http://gis.cbs.gov.il/Yeshuvim_allyears/start.aspx?stl=1245
SANDALA,"Sandala, Israel",32.522449,35.32442,צנדלה,636,צנדלה,2,23,232,8,NA,2,1570,NA,NA,1.6,NA,450,NA,2306271428,108,204,1420,Sandala,http://gis.cbs.gov.il/Yeshuvim_allyears/start.aspx?stl=636
SARIGIM (LI-ON),"Srigim-Li On, Israel",31.678567,34.93509,שריגים (לי-און),1114,שריגים (לי-און),1,11,112,26,444,1,1057,1.1,1,NA,1960,350,NA,1939062058,308,151,7004,Sarigim (Li-On),http://gis.cbs.gov.il/Yeshuvim_allyears/start.aspx?stl=1114
SAVYON,"Savyon, Israel",32.045589,34.87657799999999,סביון*,587,סביון*,4,42,422,99,132,1,3787,3.8,3.7,NA,1951,190,NA,1885966157,56,455,2370,Savyon,http://gis.cbs.gov.il/Yeshuvim_allyears/start.aspx?stl=587
SEDE HEMED,"Sdei Hemed, Israel",32.158488,34.9428062,שדי חמד,2015,שדי חמד,4,42,421,20,142,1,1035,1,1,NA,1952,310,1,1948167405,35,417,5150,Sede Hemed,http://gis.cbs.gov.il/Yeshuvim_allyears/start.aspx?stl=2015
SEDE NEHEMYA,"Sde Nehemia, Israel",33.188234,35.62307,שדה נחמיה,329,שדה נחמיה,2,21,211,1,NA,1,1159,1.2,1.1,NA,1940,330,15,2585478807,77,253,1210,Sede Nehemya,http://gis.cbs.gov.il/Yeshuvim_allyears/start.aspx?stl=329
SEDE UZZIYYAHU,"Sde Uziyahu, Israel",31.758437,34.678194,שדה עוזיהו,739,שדה עוזיהו,6,61,611,33,143,1,1484,1.5,1.5,NA,1950,310,6,1695562943,30,616,3830,Sede Uzziyyahu,http://gis.cbs.gov.il/Yeshuvim_allyears/start.aspx?stl=739
SEDE WARBURG,"Sde Warburg, Israel",32.208691,34.90325,שדה ורבורג,284,שדה ורבורג,4,42,421,20,141,1,1488,1.5,1.5,NA,1938,310,10,1910567936,49,417,5140,Sede Warburg,http://gis.cbs.gov.il/Yeshuvim_allyears/start.aspx?stl=284
SEDE YA'AQOV,"Sde Ya'aqov, Israel",32.69756,35.141315,שדה יעקב,142,שדה יעקב,2,23,235,9,NA,1,1097,1.1,1.1,NA,1927,310,2,2135273371,64,254,1440,Sede Ya'aqov,http://gis.cbs.gov.il/Yeshuvim_allyears/start.aspx?stl=142
SEDEROT,"Sderot, Israel",31.52269399999999,34.595581,שדרות,1031,שדרות,6,61,614,0,NA,1,24016,23.9,22.6,NA,1951,160,NA,1615260411,89,611,3840,Sederot,http://gis.cbs.gov.il/Yeshuvim_allyears/start.aspx?stl=1031
SEDOT YAM,"Sdot Yam, Israel",32.492613,34.89315,שדות ים,327,שדות ים,3,32,324,15,NA,1,1008,1,1,NA,1940,330,15,1901471092,9,303,1180,Sedot Yam,http://gis.cbs.gov.il/Yeshuvim_allyears/start.aspx?stl=327
SEGEV-SHALOM,"Shaqib al-Salam, Israel",31.198361,34.839665,שגב-שלום,1286,שגב-שלום,6,62,623,99,342,2,9508,NA,NA,9.5,NA,280,NA,1846556745,315,652,3481,Segev-Shalom,http://gis.cbs.gov.il/Yeshuvim_allyears/start.aspx?stl=1286
SHA'AB,"Sha'ab, Israel",32.88967,35.238764,שעב,538,שעב,2,24,241,99,241,2,6697,NA,NA,6.7,NA,280,NA,2226375498,51,263,1360,Sha'ab,http://gis.cbs.gov.il/Yeshuvim_allyears/start.aspx?stl=538
SHA'ALVIM,Sha'alvim,31.870235,34.984304,שעלבים,856,שעלבים,4,43,431,30,143,1,1769,1.8,1.8,NA,1951,330,8,1985764198,190,426,5220,Sha'alvim,http://gis.cbs.gov.il/Yeshuvim_allyears/start.aspx?stl=856
SHA'AR EFRAYIM,"Sha'ar Efraim, Israel",32.290662,34.999448,שער אפרים,661,שער אפרים,4,41,412,18,141,1,1779,1.8,1.8,NA,1953,310,1,1999268839,42,412,5150,Sha'ar Efrayim,http://gis.cbs.gov.il/Yeshuvim_allyears/start.aspx?stl=661
SHA'ARE TIQWA,Sha'arei Tikva,32.120679,35.026998,שערי תקווה,3720,שערי תקווה,7,73,NA,72,145,1,5811,5.8,5.7,NA,1983,180,NA,2026166998,177,710,4164,Sha'are Tiqwa,http://gis.cbs.gov.il/Yeshuvim_allyears/start.aspx?stl=3720
SHAVE ZIYYON,"Shavei Tsiyon St, Ashdod, Israel",31.807616,34.648119,שבי ציון,282,שבי ציון,2,24,245,4,241,1,1017,1,1,NA,1938,320,10,2081476512,7,201,1350,Shave Ziyyon,http://gis.cbs.gov.il/Yeshuvim_allyears/start.aspx?stl=282
SHEFAR'AM,"Shefa-'Amr, Israel",32.80576500000001,35.169971,שפרעם,8800,שפרעם,2,24,241,0,241,2,40535,NA,NA,40.4,NA,260,NA,2163974570,137,261,1340,Shefar'am,http://gis.cbs.gov.il/Yeshuvim_allyears/start.aspx?stl=8800
SHEFAYIM,"Shefayim, Israel",32.216586,34.822409,שפיים,232,שפיים,4,41,411,19,141,1,1242,1.2,1.2,NA,1935,330,15,1835968047,41,401,5120,Shefayim,http://gis.cbs.gov.il/Yeshuvim_allyears/start.aspx?stl=232
SHEIKH DANNUN,"Sheikh Danun, Israel",32.9938295,35.14856839999999,שייח' דנון,658,שייח' דנון,2,24,243,4,NA,2,2738,NA,NA,2.7,NA,290,NA,2141776648,84,201,1350,Sheikh Dannun,http://gis.cbs.gov.il/Yeshuvim_allyears/start.aspx?stl=658
SHELOMI,"Shlomi, Israel",33.072609,35.145945,שלומי,812,שלומי,2,24,245,99,NA,1,6187,6.1,5.7,NA,1950,180,NA,2142577563,73,255,1350,Shelomi,http://gis.cbs.gov.il/Yeshuvim_allyears/start.aspx?stl=812
SHETULIM,"Shtulim, Israel",31.773687,34.684409,שתולים,763,שתולים,6,61,611,33,143,1,1999,2,2,NA,1950,310,1,1701163134,30,616,3830,Shetulim,http://gis.cbs.gov.il/Yeshuvim_allyears/start.aspx?stl=763
SHIBLI-UMM AL-GHANAM,"Shibli-Umm al-Ghanam, Israel",32.684167,35.396944,שבלי - אום אל-גנם,913,שבלי - אום אל-גנם,2,23,237,99,NA,2,5762,NA,NA,5.8,NA,280,NA,2379973292,178,251,1420,Shibli-Umm Al-Ghanam,http://gis.cbs.gov.il/Yeshuvim_allyears/start.aspx?stl=913
SHILO,Shiloh,32.054405,35.29909,שילה,3641,שילה,7,74,NA,73,NA,1,3727,3.7,3.7,NA,1979,190,NA,2285266211,719,711,4354,Shilo,http://gis.cbs.gov.il/Yeshuvim_allyears/start.aspx?stl=3641
SHIMSHIT,"Shimshit, Israel",32.732527,35.246518,שמשית,1337,שמשית,2,23,237,9,242,1,2589,2.6,2.6,NA,2000,190,NA,2234173758,222,254,1410,Shimshit,http://gis.cbs.gov.il/Yeshuvim_allyears/start.aspx?stl=1337
SHOHAM,"Shoham, Israel",31.9957581,34.9488403,שוהם,1304,שוהם,4,43,432,99,142,1,20740,20.7,20.6,NA,1993,160,NA,1949165610,96,421,5160,Shoham,http://gis.cbs.gov.il/Yeshuvim_allyears/start.aspx?stl=1304
SHORESH,"Shoresh, Israel",31.797488,35.06529700000001,שורש,456,שורש,1,11,111,26,444,1,1234,1.2,1.2,NA,1948,320,6,2062863383,680,151,7004,Shoresh,http://gis.cbs.gov.il/Yeshuvim_allyears/start.aspx?stl=456
SITRIYYA,"Sitria, Israel",31.889854,34.842094,סתרייה,610,סתרייה,4,43,432,30,143,1,1041,1,1,NA,1949,310,1,1854164420,80,426,5230,Sitriyya,http://gis.cbs.gov.il/Yeshuvim_allyears/start.aspx?stl=610
SULAM,"Sulam, Israel",32.605633,35.334306,סולם,526,סולם,2,23,234,66,NA,2,2487,NA,NA,2.5,NA,290,NA,2316672352,118,251,1420,Sulam,http://gis.cbs.gov.il/Yeshuvim_allyears/start.aspx?stl=526
SUSEYA,Susya,31.391051,35.110978,סוסיה,3756,סוסיה,7,77,NA,78,NA,1,1115,1.1,1.1,NA,1983,370,11,2108758890,797,715,4352,Suseya,http://gis.cbs.gov.il/Yeshuvim_allyears/start.aspx?stl=3756
TAL-EL,"Tal-El, Israel",32.927306,35.182499,טל-אל,1181,טל-אל,2,24,243,56,241,1,1125,1.1,1.1,NA,1980,370,13,2169975908,116,205,1330,Tal-El,http://gis.cbs.gov.il/Yeshuvim_allyears/start.aspx?stl=1181
TAL SHAHAR,"Tal Shahar, Israel",31.804404,34.903272,טל שחר,462,טל שחר,1,11,112,26,NA,1,1315,1.3,1.3,NA,1948,310,1,1908763474,118,151,7004,Tal Shahar,http://gis.cbs.gov.il/Yeshuvim_allyears/start.aspx?stl=462
TALMON,"Talmon St, Tel Aviv-Yafo, Israel",32.0513495,34.7891535,טלמון,3788,טלמון,7,74,NA,73,NA,1,3879,3.9,3.9,NA,1989,190,NA,2132164936,584,711,4354,Talmon,http://gis.cbs.gov.il/Yeshuvim_allyears/start.aspx?stl=3788
TAMRA,"Tamra, Israel",32.852247,35.201315,טמרה,8900,טמרה,2,24,241,0,241,2,32804,NA,NA,32.8,NA,260,NA,2182175101,95,263,1340,Tamra,http://gis.cbs.gov.il/Yeshuvim_allyears/start.aspx?stl=8900
TAMRA (YIZRE'EL),"Tamra, Israel",32.634918,35.402699,טמרה (יזרעאל),547,טמרה (יזרעאל),2,23,233,8,NA,2,1541,NA,NA,1.5,NA,450,NA,2381672669,231,204,1420,Tamra (Yizre'el),http://gis.cbs.gov.il/Yeshuvim_allyears/start.aspx?stl=547
TAYIBE,"Tayibe, Israel",32.266892,35.009675,טייבה,2730,טייבה,4,41,412,0,141,2,41577,NA,NA,41.5,NA,260,NA,2008468572,64,402,5150,Tayibe,http://gis.cbs.gov.il/Yeshuvim_allyears/start.aspx?stl=2730
TAYIBE(BAEMEQ),"Mevo ha-Emek, Kohav Ya'ir, Israel",32.225162,34.9998155,טייבה (בעמק),497,טייבה (בעמק),2,23,233,8,NA,2,1779,NA,NA,1.8,NA,450,NA,2420272332,95,204,1420,Tayibe(Baemeq),http://gis.cbs.gov.il/Yeshuvim_allyears/start.aspx?stl=497
TEL ADASHIM,"Tel Adashim, Israel",32.657358,35.302478,תל עדשים,103,תל עדשים,2,23,234,9,NA,1,1460,1.5,1.4,NA,1923,310,1,2286472908,98,254,1420,Tel Adashim,http://gis.cbs.gov.il/Yeshuvim_allyears/start.aspx?stl=103
TEL AVIV - YAFO,"Tel Aviv-Yafo, Israel",32.0852999,34.78176759999999,תל אביב -יפו,5e3,תל אביב -יפו,5,51,511,0,110,4,438818,419.6,397.7,19.2,1909,130,NA,NA,17,507,2120,Tel Aviv - Yafo,http://gis.cbs.gov.il/Yeshuvim_allyears/start.aspx?stl=5000
TEL MOND,"Tel Mond, Israel",32.256608,34.91846,תל מונד,154,תל מונד,4,41,411,99,141,1,12212,12.2,12.1,NA,1929,170,NA,1924868443,46,457,5120,Tel Mond,http://gis.cbs.gov.il/Yeshuvim_allyears/start.aspx?stl=154
TEL SHEVA,"Tel Be’er Sheba, Be'er Sheva, Israel",31.244835,34.840858,תל שבע,1054,תל שבע,6,62,623,99,342,2,19163,NA,NA,19.1,NA,270,NA,1866957304,312,652,3481,Tel Sheva,http://gis.cbs.gov.il/Yeshuvim_allyears/start.aspx?stl=1054
TEL YIZHAQ,"Tel Yitzhak, Israel",32.252745,34.872378,תל יצחק,287,תל יצחק,4,41,411,19,141,1,1031,1,0.9,NA,1938,330,6,1878268441,30,401,5120,Tel Yizhaq,http://gis.cbs.gov.il/Yeshuvim_allyears/start.aspx?stl=287
TEQOA,Tekoa,31.652785,35.227517,תקוע,3563,תקוע,7,76,NA,76,445,1,3633,3.6,3.6,NA,1977,190,NA,2218161776,650,714,4352,Teqoa,http://gis.cbs.gov.il/Yeshuvim_allyears/start.aspx?stl=3563
TIBERIAS,"Tiberias, Israel",32.795859,35.530973,טבריה,6700,טבריה,2,22,221,0,NA,1,43148,42.5,39.9,NA,ותיק,160,NA,2494274369,12,207,1240,Tiberias,http://gis.cbs.gov.il/Yeshuvim_allyears/start.aspx?stl=6700
TIFRAH,"Tifrah, Israel",31.324471,34.679236,תפרח,709,תפרח,6,62,622,42,344,1,2235,2.2,2.2,NA,1949,191,NA,1693658163,162,651,3430,Tifrah,http://gis.cbs.gov.il/Yeshuvim_allyears/start.aspx?stl=709
TIMRAT,"Timrat, Israel",32.703801,35.225489,תמרת,1244,תמרת,2,23,237,9,NA,1,1297,1.3,1.3,NA,1983,370,13,2214073433,240,254,1440,Timrat,http://gis.cbs.gov.il/Yeshuvim_allyears/start.aspx?stl=1244
TIRAT KARMEL,"Tirat Carmel, Israel",32.762127,34.97298,טירת כרמל,2100,טירת כרמל,3,31,311,0,223,1,20313,20.2,19.5,NA,1949,160,NA,1976874080,45,355,1182,Tirat Karmel,http://gis.cbs.gov.il/Yeshuvim_allyears/start.aspx?stl=2100
TIRAT YEHUDA,"Tirat Yehuda, Israel",32.014833,34.935878,טירת יהודה,663,טירת יהודה,4,42,422,25,142,1,1195,1.2,1.2,NA,1949,310,2,1938965787,57,424,5160,Tirat Yehuda,http://gis.cbs.gov.il/Yeshuvim_allyears/start.aspx?stl=663
TIRE,"2239 Old Middlefield Way # F, Mountain View, CA 94043, USA",32.0567168,35.0388687,טירה,2720,טירה,4,41,412,0,141,2,25268,NA,NA,25.2,NA,260,NA,1957768225,61,403,5150,Tire,http://gis.cbs.gov.il/Yeshuvim_allyears/start.aspx?stl=2720
TUBA-ZANGARIYYE,"Tuba-Zangariyye, Israel",32.96621,35.592018,טובא-זנגרייה,962,טובא-זנגרייה,2,21,213,99,NA,2,6391,NA,NA,6.4,NA,280,NA,2556376342,294,259,1220,Tuba-Zangariyye,http://gis.cbs.gov.il/Yeshuvim_allyears/start.aspx?stl=962
TUR'AN,"Tur'an, Israel",32.775137,35.378344,טורעאן,498,טורעאן,2,25,237,99,NA,2,13464,NA,NA,13.5,NA,270,NA,2354574242,245,251,1410,Tur'an,http://gis.cbs.gov.il/Yeshuvim_allyears/start.aspx?stl=498
TUSHIYYA,"Tushia, Israel",31.432895,34.541314,תושייה,1083,תושייה,6,62,621,39,NA,1,1001,1,1,NA,1958,350,NA,1563259362,107,651,3482,Tushiyya,http://gis.cbs.gov.il/Yeshuvim_allyears/start.aspx?stl=1083
UDIM,"Udim, Israel",32.266865,34.846995,אודים,446,אודים,4,41,411,19,141,1,1356,1.4,1.3,NA,1948,310,10,1858268581,12,401,5120,Udim,http://gis.cbs.gov.il/Yeshuvim_allyears/start.aspx?stl=446
UMM AL-FAHM,"Umm al-Fahm, Israel",32.517127,35.148529,אום אל-פחם,2710,אום אל-פחם,3,32,323,0,NA,2,53306,NA,NA,53.3,NA,250,NA,2144971388,310,354,1470,Umm Al-Fahm,http://gis.cbs.gov.il/Yeshuvim_allyears/start.aspx?stl=2710
UMM AL-QUTUF,"Umm al-Qutuf, Israel",32.468084,35.059149,אום אל-קוטוף,2024,אום אל-קוטוף,3,32,323,14,NA,2,1052,NA,NA,1.1,NA,450,NA,2055370835,138,351,1450,Umm Al-Qutuf,http://gis.cbs.gov.il/Yeshuvim_allyears/start.aspx?stl=2024
UMM BATIN,"Umm Batin, Israel",31.27674369999999,34.8829215,אום בטין,1358,אום בטין,6,62,623,69,342,2,3274,NA,NA,3.3,NA,290,NA,1886757656,329,624,3481,Umm Batin,http://gis.cbs.gov.il/Yeshuvim_allyears/start.aspx?stl=1358
UZEIR,"Uzeir, Israel",32.790614,35.326882,עוזייר,528,עוזייר,2,25,237,65,NA,2,3080,NA,NA,3.1,NA,290,NA,2307874396,174,251,1410,Uzeir,http://gis.cbs.gov.il/Yeshuvim_allyears/start.aspx?stl=528
YAD BINYAMIN,"Yad Binyamin, Israel",31.796685,34.82037,יד בנימין,577,יד בנימין,4,44,441,31,143,1,3936,3.9,3.9,NA,1949,190,NA,1832363393,64,456,5230,Yad Binyamin,http://gis.cbs.gov.il/Yeshuvim_allyears/start.aspx?stl=577
YAD RAMBAM,"Yad Rambam, Israel",31.899841,34.900086,"יד רמב""ם",64,"יד רמב""ם",4,43,432,30,143,1,1068,1.1,1,NA,1955,310,2,1907264528,86,426,5220,Yad Rambam,http://gis.cbs.gov.il/Yeshuvim_allyears/start.aspx?stl=64
YAFI,"Jaffa, Tel Aviv-Yafo, Israel",32.049357,34.758355,יפיע,499,יפיע,2,25,237,99,NA,2,18406,NA,NA,18.4,NA,270,NA,2261673222,294,257,1410,Yafi,http://gis.cbs.gov.il/Yeshuvim_allyears/start.aspx?stl=499
YAGUR,"Yagur, Israel",32.741532,35.076826,יגור,96,יגור,3,31,311,12,223,1,1567,1.6,1.5,NA,1922,330,15,2075573859,16,301,1160,Yagur,http://gis.cbs.gov.il/Yeshuvim_allyears/start.aspx?stl=96
YANUH-JAT,"Yanuh-Jat, Israel",32.981568,35.241169,יאנוח-ג'ת,1295,יאנוח-ג'ת,2,24,243,99,NA,2,6363,NA,NA,6.4,NA,280,NA,2232776506,468,255,1320,Yanuh-Jat,http://gis.cbs.gov.il/Yeshuvim_allyears/start.aspx?stl=1295
YAQIR,Yakir,32.149831,35.114631,יקיר,3647,יקיר,7,73,NA,72,145,1,1901,1.9,1.9,NA,1981,370,11,2109867292,396,710,4164,Yaqir,http://gis.cbs.gov.il/Yeshuvim_allyears/start.aspx?stl=3647
YAVNE,"Yavne, Israel",31.877958,34.739449,יבנה,2660,יבנה,4,44,441,0,143,1,44050,44,42.9,NA,1949,160,NA,1752164285,30,404,5230,Yavne,http://gis.cbs.gov.il/Yeshuvim_allyears/start.aspx?stl=2660
YAVNE'EL,"Yavne'el, Israel",32.708765,35.503778,יבנאל,46,יבנאל,2,22,222,99,NA,1,4187,4.2,4.1,NA,1901,190,NA,2477973510,12,251,1240,Yavne'el,http://gis.cbs.gov.il/Yeshuvim_allyears/start.aspx?stl=46
YEHUD,"Yehud, Israel",32.030339,34.8870985,יהוד,9400,יהוד,4,42,422,0,132,1,29312,29.3,28.8,NA,1948,160,NA,1894066002,40,411,2370,Yehud,http://gis.cbs.gov.il/Yeshuvim_allyears/start.aspx?stl=9400
YEROHAM,"Yeruham, Israel",30.987804,34.929741,ירוחם,831,ירוחם,6,62,626,99,NA,1,9230,8.9,8.3,NA,1951,180,NA,1931454413,524,612,3450,Yeroham,http://gis.cbs.gov.il/Yeshuvim_allyears/start.aspx?stl=831
YESUD HAMA'ALA,"Yesud HaMa'ala, Israel",33.05358,35.589013,יסוד המעלה,29,יסוד המעלה,2,21,211,99,NA,1,1684,1.7,1.7,NA,1883,350,NA,2566377358,95,259,1220,Yesud HaMa'ala,http://gis.cbs.gov.il/Yeshuvim_allyears/start.aspx?stl=29
YIF'AT,"Yifat, Israel",32.675853,35.223982,יפעת,134,יפעת,2,23,234,9,NA,1,1176,1.2,1.1,NA,1926,330,15,2212773145,128,254,1440,Yif'at,http://gis.cbs.gov.il/Yeshuvim_allyears/start.aspx?stl=134
YINNON,"Yinon, Israel",31.741832,34.780947,ינון,2011,ינון,6,61,611,33,143,1,1119,1.1,1.1,NA,1952,310,1,1793762785,65,616,3830,Yinnon,http://gis.cbs.gov.il/Yeshuvim_allyears/start.aspx?stl=2011
YIRKA,"Yarka, Israel",32.953492,35.21199,ירכא,502,ירכא,2,24,243,99,NA,2,16590,NA,NA,16.5,NA,270,NA,2197376214,255,252,1330,Yirka,http://gis.cbs.gov.il/Yeshuvim_allyears/start.aspx?stl=502
YIZHAR,Yitzhar,32.168529,35.235944,יצהר,3749,יצהר,7,72,NA,72,NA,1,1468,1.5,1.5,NA,1983,370,11,2225067502,779,710,4164,Yizhar,http://gis.cbs.gov.il/Yeshuvim_allyears/start.aspx?stl=3749
YOQNE'AM ILLIT,"Yokne'am Illit, Israel",32.660225,35.104606,יקנעם עילית,240,יקנעם עילית,2,23,235,0,223,1,22014,22,20.3,NA,1950,160,NA,2092472813,151,222,1420,Yoqne'am Illit,http://gis.cbs.gov.il/Yeshuvim_allyears/start.aspx?stl=240
YOQNE'AM(MOSHAVA),"Yokne'am Moshava, Israel",32.655859,35.115152,יקנעם (מושבה),241,יקנעם (מושבה),2,23,235,13,NA,1,1364,1.4,1.3,NA,1935,310,10,2110672890,58,254,1420,Yoqne'am(Moshava),http://gis.cbs.gov.il/Yeshuvim_allyears/start.aspx?stl=241
YUVALLIM,"Yuvalim, Israel",32.878163,35.269294,יובלים,1226,יובלים,2,24,241,56,241,1,1120,1.1,1.1,NA,1982,370,7,2256375377,190,205,1360,Yuvallim,http://gis.cbs.gov.il/Yeshuvim_allyears/start.aspx?stl=1226
ZARZIR,"Zarzir, Israel",32.723291,35.220436,זרזיר,975,זרזיר,2,23,237,99,242,2,7617,NA,NA,7.6,NA,280,NA,2211273668,184,254,1440,Zarzir,http://gis.cbs.gov.il/Yeshuvim_allyears/start.aspx?stl=975
ZEFAT,"Safed, Israel",32.964648,35.495997,צפת,8e3,צפת,2,21,212,0,NA,1,33636,32.8,31.7,NA,ותיק,160,NA,2475176334,604,216,1230,Zefat,http://gis.cbs.gov.il/Yeshuvim_allyears/start.aspx?stl=8000
ZEKHARYA,"Zekharia, Israel",31.708812000000002,34.944708,זכריה,799,זכריה,1,11,112,26,NA,1,1065,1.1,1.1,NA,1950,310,1,1948562415,268,151,7004,Zekharya,http://gis.cbs.gov.il/Yeshuvim_allyears/start.aspx?stl=799
ZEMER,"Zemer, Israel",32.365684,35.034651,זמר,1290,זמר,4,41,412,99,141,2,6567,NA,NA,6.6,NA,280,NA,2035169685,86,458,5150,Zemer,http://gis.cbs.gov.il/Yeshuvim_allyears/start.aspx?stl=1290
ZERUFA,"Tzrufa, Israel",32.647822,34.946455,צרופה,612,צרופה,3,32,321,15,243,1,1118,1.1,1.1,NA,1949,310,1,1954272826,21,303,1181,Zerufa,http://gis.cbs.gov.il/Yeshuvim_allyears/start.aspx?stl=612
ZETAN,"Zeitan, Israel",31.975178,34.891732,זיתן,788,זיתן,4,43,432,40,133,1,1067,1.1,1.1,NA,1950,310,1,1897865365,40,425,5280,Zetan,http://gis.cbs.gov.il/Yeshuvim_allyears/start.aspx?stl=788
ZIKHRON YA'AQOV,"Zikhron Ya'akov, Israel",32.573905,34.951977,זכרון יעקב,9300,זכרון יעקב,3,32,322,99,NA,1,22660,22.6,21.8,NA,1882,160,NA,1957771962,78,353,1181,Zikhron Ya'aqov,http://gis.cbs.gov.il/Yeshuvim_allyears/start.aspx?stl=9300
ZOFIT,"Tzofit, Israel",32.19488,34.920085,צופית,198,צופית,4,42,421,20,141,1,1288,1.3,1.3,NA,1933,310,1,1926967776,66,417,5140,Zofit,http://gis.cbs.gov.il/Yeshuvim_allyears/start.aspx?stl=198
ZUFIM,Zufim,32.197318,35.008912,צופים,3791,צופים,7,73,NA,72,145,1,2087,2.1,2,NA,1989,190,NA,2011067829,163,710,4164,Zufim,http://gis.cbs.gov.il/Yeshuvim_allyears/start.aspx?stl=3791
ZUR HADASSA,"Tzur Hadassah, Israel",31.719374,35.096958,צור הדסה,1113,צור הדסה,1,11,111,26,444,1,7773,7.8,7.4,NA,1960,180,NA,2091262495,732,151,7004,Zur Hadassa,http://gis.cbs.gov.il/Yeshuvim_allyears/start.aspx?stl=1113
ZUR MOSHE,"Tzur Moshe, Israel",32.298911,34.913117,צור משה,276,צור משה,4,41,411,18,141,1,3369,3.4,3.3,NA,1937,190,NA,1920568938,50,412,5120,Zur Moshe,http://gis.cbs.gov.il/Yeshuvim_allyears/start.aspx?stl=276
ZUR YIZHAQ,"Tzur Yitzhak, Israel",32.241478,34.997998,צור יצחק,1345,צור יצחק,4,42,421,20,141,1,4935,4.9,4.8,NA,2007,190,NA,2000668306,119,417,5150,Zur Yizhaq,http://gis.cbs.gov.il/Yeshuvim_allyears/start.aspx?stl=1345
